event_id,title,category,source,status,start_date,lat,lon,link,captured_at
EONET_18592,Iceberg D15C,Sea and Lake Ice,NATICE,open,2026-04-24,-67.09,79.82,https://eonet.gsfc.nasa.gov/api/v3/events/EONET_18592,2026-04-27T23:10:04Z
EONET_12618,Iceberg A84,Sea and Lake Ice,NATICE,open,2026-04-24,-73.24,-106.83,https://eonet.gsfc.nasa.gov/api/v3/events/EONET_12618,2026-04-27T23:10:04Z
EONET_6051,Iceberg C39,Sea and Lake Ice,NATICE,open,2026-04-24,-68.81,74.24,https://eonet.gsfc.nasa.gov/api/v3/events/EONET_6051,2026-04-27T23:10:04Z
EONET_6424,Iceberg D33B,Sea and Lake Ice,NATICE,open,2026-04-24,-66.98,-53.44,https://eonet.gsfc.nasa.gov/api/v3/events/EONET_6424,2026-04-27T23:10:04Z
EONET_12716,Iceberg A85,Sea and Lake Ice,NATICE,open,2026-04-24,-68.1,-57.29,https://eonet.gsfc.nasa.gov/api/v3/events/EONET_12716,2026-04-27T23:10:04Z
EONET_5359,Iceberg A76C,Sea and Lake Ice,NATICE,open,2026-04-24,-58.65,-36.19,https://eonet.gsfc.nasa.gov/api/v3/events/EONET_5359,2026-04-27T23:10:04Z
EONET_10212,Iceberg B22F,Sea and Lake Ice,NATICE,open,2026-04-24,-67.1,179.83,https://eonet.gsfc.nasa.gov/api/v3/events/EONET_10212,2026-04-27T23:10:04Z
EONET_14284,Iceberg B22H,Sea and Lake Ice,NATICE,open,2026-04-24,-72.13,176.25,https://eonet.gsfc.nasa.gov/api/v3/events/EONET_14284,2026-04-27T23:10:04Z
EONET_15852,Iceberg C18C,Sea and Lake Ice,NATICE,open,2026-04-24,-68.47,39.08,https://eonet.gsfc.nasa.gov/api/v3/events/EONET_15852,2026-04-27T23:10:04Z
EONET_19840,"rx-66 Prescribed Fire, Burnett, Wisconsin",Wildfires,IRWIN,open,2026-04-23,45.8508587,-92.6535178,https://eonet.gsfc.nasa.gov/api/v3/events/EONET_19840,2026-04-27T23:10:04Z
EONET_19839,"Bauman Wildfire, Jackson, South Dakota",Wildfires,IRWIN,open,2026-04-23,43.631,-101.3950833,https://eonet.gsfc.nasa.gov/api/v3/events/EONET_19839,2026-04-27T23:10:04Z
EONET_19832,"Baldwin Fuels 6 RX Prescribed Fire, Lake, Michigan",Wildfires,IRWIN,open,2026-04-23,43.88275,-85.896883,https://eonet.gsfc.nasa.gov/api/v3/events/EONET_19832,2026-04-27T23:10:04Z
EONET_19843,"Peterson Wildfire, Holt, Nebraska",Wildfires,IRWIN,open,2026-04-23,42.12483,-99.04273,https://eonet.gsfc.nasa.gov/api/v3/events/EONET_19843,2026-04-27T23:10:04Z
EONET_19844,"Andrews Wildfire, Cherry, Nebraska",Wildfires,IRWIN,open,2026-04-22,42.763583,-101.004,https://eonet.gsfc.nasa.gov/api/v3/events/EONET_19844,2026-04-27T23:10:04Z
EONET_19841,"Hammer Wildfire, El Paso, Colorado",Wildfires,IRWIN,open,2026-04-22,38.67,-104.61,https://eonet.gsfc.nasa.gov/api/v3/events/EONET_19841,2026-04-27T23:10:04Z
EONET_19838,"Taber Rec Wildfire, Bon Homme, South Dakota",Wildfires,IRWIN,open,2026-04-22,42.862657,-97.647004,https://eonet.gsfc.nasa.gov/api/v3/events/EONET_19838,2026-04-27T23:10:04Z
EONET_19862,Flood in Panama 1103850,Floods,GDACS,closed,2026-04-22,8.507448,-82.8312256,https://eonet.gsfc.nasa.gov/api/v3/events/EONET_19862,2026-04-27T23:10:04Z
EONET_19834,"Pressey Wildfire, Cherry, Nebraska",Wildfires,IRWIN,open,2026-04-22,42.246685,-101.029476,https://eonet.gsfc.nasa.gov/api/v3/events/EONET_19834,2026-04-27T23:10:04Z
EONET_19845,"Lone Pine Wildfire, Becker, Minnesota",Wildfires,IRWIN,open,2026-04-22,47.020535,-95.912189,https://eonet.gsfc.nasa.gov/api/v3/events/EONET_19845,2026-04-27T23:10:04Z
EONET_19850,"Wells Rd Unit 1 RX Prescribed Fire, Iosco, Michigan",Wildfires,IRWIN,open,2026-04-22,44.425,-83.483333,https://eonet.gsfc.nasa.gov/api/v3/events/EONET_19850,2026-04-27T23:10:04Z
EONET_19835,"COW CREEK Wildfire, Levy, Florida",Wildfires,IRWIN,open,2026-04-21,29.2822222,-82.6311111,https://eonet.gsfc.nasa.gov/api/v3/events/EONET_19835,2026-04-27T23:10:04Z
EONET_19860,Flood in Afghanistan 1103848,Floods,GDACS,closed,2026-04-21,36,67.666667,https://eonet.gsfc.nasa.gov/api/v3/events/EONET_19860,2026-04-27T23:10:04Z
EONET_19861,Flood in Kenya 1103849,Floods,GDACS,closed,2026-04-21,-4.1836067,39.105095,https://eonet.gsfc.nasa.gov/api/v3/events/EONET_19861,2026-04-27T23:10:04Z
EONET_19863,Flood in Venezuela 1103851,Floods,GDACS,closed,2026-04-21,10.5693891,-69.5850374,https://eonet.gsfc.nasa.gov/api/v3/events/EONET_19863,2026-04-27T23:10:04Z
EONET_19854,"rx-73 Prescribed Fire, Burnett, Wisconsin",Wildfires,IRWIN,open,2026-04-21,45.8694852,-92.645347,https://eonet.gsfc.nasa.gov/api/v3/events/EONET_19854,2026-04-27T23:10:04Z
EONET_19836,"MM-45- Broward (06) Wildfire, Broward, Florida",Wildfires,IRWIN,open,2026-04-21,26.3002778,-80.5,https://eonet.gsfc.nasa.gov/api/v3/events/EONET_19836,2026-04-27T23:10:04Z
EONET_19831,"Hwy 82 Wildfire, Brantley, Georgia",Wildfires,IRWIN,open,2026-04-21,31.2222222,-81.8438889,https://eonet.gsfc.nasa.gov/api/v3/events/EONET_19831,2026-04-27T23:10:04Z
EONET_19846,"DeSoto BB 9370 C507 508 509 RX Prescribed Fire, Jackson, Mississippi",Wildfires,IRWIN,open,2026-04-21,30.698133,-88.86195,https://eonet.gsfc.nasa.gov/api/v3/events/EONET_19846,2026-04-27T23:10:04Z
EONET_19852,"RX CALE BU 44-367 Prescribed Fire, Rapides, Louisiana",Wildfires,IRWIN,open,2026-04-21,31.132467,-92.615933,https://eonet.gsfc.nasa.gov/api/v3/events/EONET_19852,2026-04-27T23:10:04Z
EONET_19813,Wildfire in Australia 1028503,Wildfires,GDACS,closed,2026-04-20,-16.535361509719152,126.7355675431825,https://eonet.gsfc.nasa.gov/api/v3/events/EONET_19813,2026-04-27T23:10:04Z
EONET_19833,"East Side Wildfire, Carbon, Montana",Wildfires,IRWIN,open,2026-04-20,45.092167,-109.3142,https://eonet.gsfc.nasa.gov/api/v3/events/EONET_19833,2026-04-27T23:10:04Z
EONET_19849,"Hansen WPA RX Prescribed Fire, Clay, Nebraska",Wildfires,IRWIN,open,2026-04-20,40.452,-97.862,https://eonet.gsfc.nasa.gov/api/v3/events/EONET_19849,2026-04-27T23:10:04Z
EONET_19858,"Krause RX Prescribed Fire, Fillmore, Nebraska",Wildfires,IRWIN,open,2026-04-20,40.467,-97.792,https://eonet.gsfc.nasa.gov/api/v3/events/EONET_19858,2026-04-27T23:10:04Z
EONET_19851,"Burn Unit 17 RX Prescribed Fire, Sherburne, Minnesota",Wildfires,IRWIN,open,2026-04-20,45.525011,-93.683986,https://eonet.gsfc.nasa.gov/api/v3/events/EONET_19851,2026-04-27T23:10:04Z
EONET_19853,"Peacock 545 and 159 RX Prescribed Fire, Lake, Michigan",Wildfires,IRWIN,open,2026-04-20,44.150617,-85.829167,https://eonet.gsfc.nasa.gov/api/v3/events/EONET_19853,2026-04-27T23:10:04Z
EONET_19792,"Crews Rd (10) Wildfire, Clay, Florida",Wildfires,IRWIN,open,2026-04-20,29.8861111,-81.6333333,https://eonet.gsfc.nasa.gov/api/v3/events/EONET_19792,2026-04-27T23:10:04Z
EONET_19797,"RAILROAD COMPLEX Wildfire, Putnam, Florida",Wildfires,IRWIN,open,2026-04-19,29.7855556,-81.6330556,https://eonet.gsfc.nasa.gov/api/v3/events/EONET_19797,2026-04-27T23:10:04Z
EONET_19810,Flood in Türkiye 1103845,Floods,GDACS,closed,2026-04-19,37.3611355,40.8959403,https://eonet.gsfc.nasa.gov/api/v3/events/EONET_19810,2026-04-27T23:10:04Z
EONET_19799,"RAILROAD COMPLEX Wildfire, Putnam, Florida",Wildfires,IRWIN,open,2026-04-19,29.7855556,-81.6327778,https://eonet.gsfc.nasa.gov/api/v3/events/EONET_19799,2026-04-27T23:10:04Z
EONET_19814,Wildfire in India 1028505,Wildfires,GDACS,closed,2026-04-19,25.551767673510113,92.97879524548557,https://eonet.gsfc.nasa.gov/api/v3/events/EONET_19814,2026-04-27T23:10:04Z
EONET_19815,Wildfire in Australia 1028504,Wildfires,GDACS,closed,2026-04-19,-32.69269470346073,119.73427418932388,https://eonet.gsfc.nasa.gov/api/v3/events/EONET_19815,2026-04-27T23:10:04Z
EONET_19794,"TUMEY Wildfire, Fresno, California",Wildfires,IRWIN,closed,2026-04-19,36.622459,-120.65767,https://eonet.gsfc.nasa.gov/api/v3/events/EONET_19794,2026-04-27T23:10:04Z
EONET_19857,"River Road 16 RX Prescribed Fire, Iosco, Michigan",Wildfires,IRWIN,open,2026-04-19,44.416667,-83.591667,https://eonet.gsfc.nasa.gov/api/v3/events/EONET_19857,2026-04-27T23:10:04Z
EONET_19856,"Barren Plains Units 1 &amp; 3 RX Prescribed Fire, Lake, Michigan",Wildfires,IRWIN,open,2026-04-19,43.849417,-85.80305,https://eonet.gsfc.nasa.gov/api/v3/events/EONET_19856,2026-04-27T23:10:04Z
EONET_19793,"Pineland Rd Wildfire, Clinch, Georgia",Wildfires,IRWIN,open,2026-04-19,30.7563889,-82.7680556,https://eonet.gsfc.nasa.gov/api/v3/events/EONET_19793,2026-04-27T23:10:04Z
EONET_19801,"rx-45_041526 Prescribed Fire, Burnett, Wisconsin",Wildfires,IRWIN,open,2026-04-19,45.8375735,-92.6494912,https://eonet.gsfc.nasa.gov/api/v3/events/EONET_19801,2026-04-27T23:10:04Z
EONET_19481,Super Typhoon Sinlaku,Severe Storms,JTWC,closed,2026-04-19,28.7,156.1,https://eonet.gsfc.nasa.gov/api/v3/events/EONET_19481,2026-04-27T23:10:04Z
EONET_19811,Flood in India 1103844,Floods,GDACS,closed,2026-04-18,26.1600453,91.6958086,https://eonet.gsfc.nasa.gov/api/v3/events/EONET_19811,2026-04-27T23:10:04Z
EONET_19816,Wildfire in United States 1028506,Wildfires,GDACS,closed,2026-04-18,30.76798851454568,-82.78897429673108,https://eonet.gsfc.nasa.gov/api/v3/events/EONET_19816,2026-04-27T23:10:04Z
EONET_19796,"Conner-Nelson Rd (45) Wildfire, Nassau, Florida",Wildfires,IRWIN,open,2026-04-18,30.6886111,-81.9855556,https://eonet.gsfc.nasa.gov/api/v3/events/EONET_19796,2026-04-27T23:10:04Z
EONET_19798,"Neon White Wildfire, Dickens, Texas",Wildfires,IRWIN,closed,2026-04-18,33.67646667,-100.6713667,https://eonet.gsfc.nasa.gov/api/v3/events/EONET_19798,2026-04-27T23:10:04Z
EONET_19837,"RX D4 Piquett Creek Prescribed Fire, Ravalli, Montana",Wildfires,IRWIN,open,2026-04-17,45.848167,-114.202833,https://eonet.gsfc.nasa.gov/api/v3/events/EONET_19837,2026-04-27T23:10:04Z
EONET_19795,"Holm RX Prescribed Fire, Blaine, Montana",Wildfires,IRWIN,open,2026-04-17,48.81675,-109.41723,https://eonet.gsfc.nasa.gov/api/v3/events/EONET_19795,2026-04-27T23:10:04Z
EONET_19805,"Rx Cherokee 3533 Prescribed Fire, Cherokee, Texas",Wildfires,IRWIN,open,2026-04-17,31.56589,-95.10404,https://eonet.gsfc.nasa.gov/api/v3/events/EONET_19805,2026-04-27T23:10:04Z
EONET_19806,"RX Trinity 3522 Prescribed Fire, Trinity, Texas",Wildfires,IRWIN,open,2026-04-17,31.0137,-95.2677,https://eonet.gsfc.nasa.gov/api/v3/events/EONET_19806,2026-04-27T23:10:04Z
EONET_19802,"LO GAP Wildfire, Van Buren, Arkansas",Wildfires,IRWIN,open,2026-04-17,35.5865604,-92.62707719,https://eonet.gsfc.nasa.gov/api/v3/events/EONET_19802,2026-04-27T23:10:04Z
EONET_19800,"Old Orangeburg Wildfire, Hampton, South Carolina",Wildfires,IRWIN,open,2026-04-17,32.7258333,-81.2741667,https://eonet.gsfc.nasa.gov/api/v3/events/EONET_19800,2026-04-27T23:10:04Z
EONET_6423,Iceberg D33A,Sea and Lake Ice,NATICE,open,2026-04-17,-65.12,-57.7,https://eonet.gsfc.nasa.gov/api/v3/events/EONET_6423,2026-04-27T23:10:04Z
EONET_6510,Iceberg D33C,Sea and Lake Ice,NATICE,open,2026-04-17,-65.63,-58.13,https://eonet.gsfc.nasa.gov/api/v3/events/EONET_6510,2026-04-27T23:10:04Z
EONET_6523,Iceberg A83,Sea and Lake Ice,EO,open,2026-04-17,-67.13,-53.11,https://eonet.gsfc.nasa.gov/api/v3/events/EONET_6523,2026-04-27T23:10:04Z
EONET_19771,Flood in New Zealand 1103842,Floods,GDACS,closed,2026-04-16,-41.1767248,174.9817738,https://eonet.gsfc.nasa.gov/api/v3/events/EONET_19771,2026-04-27T23:10:04Z
EONET_19808,Flood in Colombia 1103843,Floods,GDACS,closed,2026-04-16,4.4048536,-74.3872407,https://eonet.gsfc.nasa.gov/api/v3/events/EONET_19808,2026-04-27T23:10:04Z
EONET_19812,Flood in Mexico 1103846,Floods,GDACS,closed,2026-04-16,22.5179287,-101.0227023,https://eonet.gsfc.nasa.gov/api/v3/events/EONET_19812,2026-04-27T23:10:04Z
EONET_19728,Wildfire in Australia 1028455,Wildfires,GDACS,closed,2026-04-16,-15.568842589705051,125.9081549131927,https://eonet.gsfc.nasa.gov/api/v3/events/EONET_19728,2026-04-27T23:10:04Z
EONET_19729,Wildfire in Australia 1028456,Wildfires,GDACS,closed,2026-04-16,-15.40284561780543,126.03800347597036,https://eonet.gsfc.nasa.gov/api/v3/events/EONET_19729,2026-04-27T23:10:04Z
EONET_19758,Wildfire in Australia 1028470,Wildfires,GDACS,closed,2026-04-16,-14.562891671310567,126.4426184392112,https://eonet.gsfc.nasa.gov/api/v3/events/EONET_19758,2026-04-27T23:10:04Z
EONET_19772,Wildfire in The Democratic Republic of Congo 1028497,Wildfires,GDACS,closed,2026-04-16,-0.16414320781930225,24.467194720025663,https://eonet.gsfc.nasa.gov/api/v3/events/EONET_19772,2026-04-27T23:10:04Z
EONET_19773,Wildfire in The Democratic Republic of Congo 1028498,Wildfires,GDACS,closed,2026-04-16,-0.19881454490456513,24.315085803924347,https://eonet.gsfc.nasa.gov/api/v3/events/EONET_19773,2026-04-27T23:10:04Z
EONET_19817,Wildfire in Russian Federation 1028507,Wildfires,GDACS,closed,2026-04-16,45.76259742109688,37.935615379097925,https://eonet.gsfc.nasa.gov/api/v3/events/EONET_19817,2026-04-27T23:10:04Z
EONET_19807,"RX CALV BU 255-257 Prescribed Fire, Vernon, Louisiana",Wildfires,IRWIN,open,2026-04-16,31.062467,-93.157417,https://eonet.gsfc.nasa.gov/api/v3/events/EONET_19807,2026-04-27T23:10:04Z
EONET_19804,"Burn Unit 20 RX Prescribed Fire, Sherburne, Minnesota",Wildfires,IRWIN,open,2026-04-16,45.503583,-93.708514,https://eonet.gsfc.nasa.gov/api/v3/events/EONET_19804,2026-04-27T23:10:04Z
EONET_19681,Wildfire in Australia 1028425,Wildfires,GDACS,closed,2026-04-15,-18.169767718864108,125.36002935813124,https://eonet.gsfc.nasa.gov/api/v3/events/EONET_19681,2026-04-27T23:10:04Z
EONET_19730,Wildfire in Australia 1028449,Wildfires,GDACS,closed,2026-04-15,-16.831283743960935,126.07467598678107,https://eonet.gsfc.nasa.gov/api/v3/events/EONET_19730,2026-04-27T23:10:04Z
EONET_19759,Wildfire in Australia 1028474,Wildfires,GDACS,closed,2026-04-15,-18.04927101716552,124.81419923340054,https://eonet.gsfc.nasa.gov/api/v3/events/EONET_19759,2026-04-27T23:10:04Z
EONET_19760,Wildfire in Australia 1028475,Wildfires,GDACS,closed,2026-04-15,-18.549268676467566,126.11331606864275,https://eonet.gsfc.nasa.gov/api/v3/events/EONET_19760,2026-04-27T23:10:04Z
EONET_19774,Wildfire in Australia 1028494,Wildfires,GDACS,closed,2026-04-15,-16.69544068520403,125.9908792615089,https://eonet.gsfc.nasa.gov/api/v3/events/EONET_19774,2026-04-27T23:10:04Z
EONET_19818,Wildfire in Australia 1028508,Wildfires,GDACS,closed,2026-04-15,-16.711911170566424,126.02607594326393,https://eonet.gsfc.nasa.gov/api/v3/events/EONET_19818,2026-04-27T23:10:04Z
EONET_19819,Wildfire in Australia 1028509,Wildfires,GDACS,closed,2026-04-15,-18.242994966849178,125.47294729520354,https://eonet.gsfc.nasa.gov/api/v3/events/EONET_19819,2026-04-27T23:10:04Z
EONET_19714,"Dismal Swamp RX Prescribed Fire, Big Stone, Minnesota",Wildfires,IRWIN,open,2026-04-15,45.46325,-96.271767,https://eonet.gsfc.nasa.gov/api/v3/events/EONET_19714,2026-04-27T23:10:04Z
EONET_19717,"Homochitto BB 49 East RX Prescribed Fire, Franklin, Mississippi",Wildfires,IRWIN,open,2026-04-15,31.419,-91.013,https://eonet.gsfc.nasa.gov/api/v3/events/EONET_19717,2026-04-27T23:10:04Z
EONET_19622,Wildfire in Mongolia 1028379,Wildfires,GDACS,closed,2026-04-14,45.60001258987409,115.71148593940126,https://eonet.gsfc.nasa.gov/api/v3/events/EONET_19622,2026-04-27T23:10:04Z
EONET_19623,Wildfire in China 1028380,Wildfires,GDACS,closed,2026-04-14,44.03552554894194,116.9190410127069,https://eonet.gsfc.nasa.gov/api/v3/events/EONET_19623,2026-04-27T23:10:04Z
EONET_19624,Wildfire in Australia 1028381,Wildfires,GDACS,closed,2026-04-14,-31.350251777981278,119.56990866770263,https://eonet.gsfc.nasa.gov/api/v3/events/EONET_19624,2026-04-27T23:10:04Z
EONET_19625,Wildfire in Australia 1028382,Wildfires,GDACS,closed,2026-04-14,-17.954412416446868,137.7328106558452,https://eonet.gsfc.nasa.gov/api/v3/events/EONET_19625,2026-04-27T23:10:04Z
EONET_19682,Wildfire in Australia 1028426,Wildfires,GDACS,closed,2026-04-14,-16.059848743535298,125.07630559041064,https://eonet.gsfc.nasa.gov/api/v3/events/EONET_19682,2026-04-27T23:10:04Z
EONET_19683,Wildfire in Australia 1028427,Wildfires,GDACS,closed,2026-04-14,-18.064377229020778,126.48152947633591,https://eonet.gsfc.nasa.gov/api/v3/events/EONET_19683,2026-04-27T23:10:04Z
EONET_19684,Wildfire in Australia 1028428,Wildfires,GDACS,closed,2026-04-14,-25.02285079084495,148.91560966612704,https://eonet.gsfc.nasa.gov/api/v3/events/EONET_19684,2026-04-27T23:10:04Z
EONET_19685,Wildfire in Australia 1028413,Wildfires,GDACS,closed,2026-04-14,-16.610007581950203,127.94815493512186,https://eonet.gsfc.nasa.gov/api/v3/events/EONET_19685,2026-04-27T23:10:04Z
EONET_19731,Wildfire in Australia 1028457,Wildfires,GDACS,closed,2026-04-14,-16.45270921605889,128.02826335193845,https://eonet.gsfc.nasa.gov/api/v3/events/EONET_19731,2026-04-27T23:10:04Z
EONET_19732,Wildfire in Australia 1028458,Wildfires,GDACS,closed,2026-04-14,-16.270213819549365,124.89280061178852,https://eonet.gsfc.nasa.gov/api/v3/events/EONET_19732,2026-04-27T23:10:04Z
EONET_19761,Wildfire in Australia 1028476,Wildfires,GDACS,closed,2026-04-14,-16.295113447523136,128.40447644355072,https://eonet.gsfc.nasa.gov/api/v3/events/EONET_19761,2026-04-27T23:10:04Z
EONET_19820,"Wildfire in Bangladesh, India 1028510",Wildfires,GDACS,closed,2026-04-14,23.71981850552733,92.15788601731722,https://eonet.gsfc.nasa.gov/api/v3/events/EONET_19820,2026-04-27T23:10:04Z
EONET_19715,"ENCINO 2 Wildfire, Torrance, New Mexico",Wildfires,IRWIN,open,2026-04-14,34.643232,-105.416063,https://eonet.gsfc.nasa.gov/api/v3/events/EONET_19715,2026-04-27T23:10:04Z
EONET_19713,"Appalachia Wildfire, Polk, Tennessee",Wildfires,IRWIN,open,2026-04-14,35.1675,-84.3755,https://eonet.gsfc.nasa.gov/api/v3/events/EONET_19713,2026-04-27T23:10:04Z
EONET_19718,"Woodbury Wildfire, Marion, South Carolina",Wildfires,IRWIN,open,2026-04-14,33.7498333,-79.2833333,https://eonet.gsfc.nasa.gov/api/v3/events/EONET_19718,2026-04-27T23:10:04Z
EONET_19725,"Homochitto BB 49 West RX Prescribed Fire, Franklin, Mississippi",Wildfires,IRWIN,open,2026-04-14,31.419,-91.013,https://eonet.gsfc.nasa.gov/api/v3/events/EONET_19725,2026-04-27T23:10:04Z
EONET_19722,"ANF Trout Creek RX Prescribed Fire, Jasper, Texas",Wildfires,IRWIN,closed,2026-04-14,31.063467,-94.1571,https://eonet.gsfc.nasa.gov/api/v3/events/EONET_19722,2026-04-27T23:10:04Z
EONET_19724,"ANF Boykin Springs C-88/89 RX Prescribed Fire, Jasper, Texas",Wildfires,IRWIN,open,2026-04-14,31.042883,-94.2842,https://eonet.gsfc.nasa.gov/api/v3/events/EONET_19724,2026-04-27T23:10:04Z
EONET_19726,"Chickasawhay CPT 354 RX Prescribed Fire, Jones, Mississippi",Wildfires,IRWIN,open,2026-04-14,31.5603,-88.9888,https://eonet.gsfc.nasa.gov/api/v3/events/EONET_19726,2026-04-27T23:10:04Z
EONET_19558,"NEWMAN DR Wildfire, Collier, Florida",Wildfires,IRWIN,open,2026-04-13,26.1502778,-81.6330556,https://eonet.gsfc.nasa.gov/api/v3/events/EONET_19558,2026-04-27T23:10:04Z
EONET_19621,Flood in Italy 1103839,Floods,GDACS,closed,2026-04-13,42.6539486,12.4396528,https://eonet.gsfc.nasa.gov/api/v3/events/EONET_19621,2026-04-27T23:10:04Z
EONET_19626,Wildfire in Australia 1028364,Wildfires,GDACS,closed,2026-04-13,-18.280406914840754,137.60182364857906,https://eonet.gsfc.nasa.gov/api/v3/events/EONET_19626,2026-04-27T23:10:04Z
EONET_19627,Wildfire in Australia 1028383,Wildfires,GDACS,closed,2026-04-13,-18.440665227574993,137.8573115225916,https://eonet.gsfc.nasa.gov/api/v3/events/EONET_19627,2026-04-27T23:10:04Z
EONET_19628,Wildfire in Australia 1028384,Wildfires,GDACS,closed,2026-04-13,-16.621752130270444,125.13217014544087,https://eonet.gsfc.nasa.gov/api/v3/events/EONET_19628,2026-04-27T23:10:04Z
EONET_19629,Wildfire in Australia 1028385,Wildfires,GDACS,closed,2026-04-13,-15.958443953357534,125.29298491962707,https://eonet.gsfc.nasa.gov/api/v3/events/EONET_19629,2026-04-27T23:10:04Z
EONET_19630,Wildfire in Australia 1028386,Wildfires,GDACS,closed,2026-04-13,-15.380261428512322,127.5129726554247,https://eonet.gsfc.nasa.gov/api/v3/events/EONET_19630,2026-04-27T23:10:04Z
EONET_19631,Wildfire in Australia 1028387,Wildfires,GDACS,closed,2026-04-13,-15.440743844765365,129.44372290202557,https://eonet.gsfc.nasa.gov/api/v3/events/EONET_19631,2026-04-27T23:10:04Z
EONET_19632,Wildfire in Australia 1028388,Wildfires,GDACS,closed,2026-04-13,-16.530495362926477,125.14885709339435,https://eonet.gsfc.nasa.gov/api/v3/events/EONET_19632,2026-04-27T23:10:04Z
EONET_19633,Wildfire in Australia 1028389,Wildfires,GDACS,closed,2026-04-13,-25.229799639355054,149.06104407662804,https://eonet.gsfc.nasa.gov/api/v3/events/EONET_19633,2026-04-27T23:10:04Z
EONET_19634,Wildfire in Australia 1028358,Wildfires,GDACS,closed,2026-04-13,-18.252728736298504,137.72976124074808,https://eonet.gsfc.nasa.gov/api/v3/events/EONET_19634,2026-04-27T23:10:04Z
EONET_19635,Wildfire in Australia 1028359,Wildfires,GDACS,closed,2026-04-13,-18.47934238995696,137.58944973626856,https://eonet.gsfc.nasa.gov/api/v3/events/EONET_19635,2026-04-27T23:10:04Z
EONET_19636,Wildfire in Australia 1028360,Wildfires,GDACS,closed,2026-04-13,-18.124192522168226,137.79693751669512,https://eonet.gsfc.nasa.gov/api/v3/events/EONET_19636,2026-04-27T23:10:04Z
EONET_19686,Wildfire in China 1028429,Wildfires,GDACS,closed,2026-04-13,48.4134976639151,125.24922679180521,https://eonet.gsfc.nasa.gov/api/v3/events/EONET_19686,2026-04-27T23:10:04Z
EONET_19687,Wildfire in China 1028430,Wildfires,GDACS,closed,2026-04-13,48.130212302609806,125.11522232027016,https://eonet.gsfc.nasa.gov/api/v3/events/EONET_19687,2026-04-27T23:10:04Z
EONET_19688,Wildfire in Australia 1028410,Wildfires,GDACS,closed,2026-04-13,-25.221255395419682,149.0552410565294,https://eonet.gsfc.nasa.gov/api/v3/events/EONET_19688,2026-04-27T23:10:04Z
EONET_19689,Wildfire in Australia 1028414,Wildfires,GDACS,closed,2026-04-13,-16.028662201145696,134.73573862615694,https://eonet.gsfc.nasa.gov/api/v3/events/EONET_19689,2026-04-27T23:10:04Z
EONET_19690,Wildfire in Australia 1028415,Wildfires,GDACS,closed,2026-04-13,-16.235609458023653,134.95695224818084,https://eonet.gsfc.nasa.gov/api/v3/events/EONET_19690,2026-04-27T23:10:04Z
EONET_19733,Wildfire in Guinea 1028445,Wildfires,GDACS,closed,2026-04-13,11.236234250506017,-13.717675856461664,https://eonet.gsfc.nasa.gov/api/v3/events/EONET_19733,2026-04-27T23:10:04Z
EONET_19734,Wildfire in Australia 1028459,Wildfires,GDACS,closed,2026-04-13,-15.654904590317235,127.55311325887335,https://eonet.gsfc.nasa.gov/api/v3/events/EONET_19734,2026-04-27T23:10:04Z
EONET_19735,Wildfire in Australia 1028460,Wildfires,GDACS,closed,2026-04-13,-15.704755892638493,129.3368589298971,https://eonet.gsfc.nasa.gov/api/v3/events/EONET_19735,2026-04-27T23:10:04Z
EONET_19736,Wildfire in Australia 1028461,Wildfires,GDACS,closed,2026-04-13,-15.89404250934564,125.50608000301533,https://eonet.gsfc.nasa.gov/api/v3/events/EONET_19736,2026-04-27T23:10:04Z
EONET_19737,Wildfire in Australia 1028462,Wildfires,GDACS,closed,2026-04-13,-15.631587079287163,125.6466598874823,https://eonet.gsfc.nasa.gov/api/v3/events/EONET_19737,2026-04-27T23:10:04Z
EONET_19738,Wildfire in Australia 1028463,Wildfires,GDACS,closed,2026-04-13,-15.411716314893821,125.77604684696165,https://eonet.gsfc.nasa.gov/api/v3/events/EONET_19738,2026-04-27T23:10:04Z
EONET_19739,Wildfire in Australia 1028450,Wildfires,GDACS,closed,2026-04-13,-15.486534017338403,127.62418743169972,https://eonet.gsfc.nasa.gov/api/v3/events/EONET_19739,2026-04-27T23:10:04Z
EONET_19762,Wildfire in China 1028473,Wildfires,GDACS,closed,2026-04-13,48.84413721814124,124.55135639348269,https://eonet.gsfc.nasa.gov/api/v3/events/EONET_19762,2026-04-27T23:10:04Z
EONET_19775,Wildfire in Sudan 1028499,Wildfires,GDACS,closed,2026-04-13,9.19991077054727,31.253934844418268,https://eonet.gsfc.nasa.gov/api/v3/events/EONET_19775,2026-04-27T23:10:04Z
EONET_19776,Wildfire in India 1028487,Wildfires,GDACS,closed,2026-04-13,14.55591441637255,78.96540203766854,https://eonet.gsfc.nasa.gov/api/v3/events/EONET_19776,2026-04-27T23:10:04Z
EONET_19777,Wildfire in Australia 1028488,Wildfires,GDACS,closed,2026-04-13,-18.615820895627806,124.04778834302742,https://eonet.gsfc.nasa.gov/api/v3/events/EONET_19777,2026-04-27T23:10:04Z
EONET_19821,Wildfire in Australia 1028511,Wildfires,GDACS,closed,2026-04-13,-18.871454927774277,123.8259137381657,https://eonet.gsfc.nasa.gov/api/v3/events/EONET_19821,2026-04-27T23:10:04Z
EONET_19822,Wildfire in Thailand 1028512,Wildfires,GDACS,closed,2026-04-13,14.969950609401295,99.02992452968479,https://eonet.gsfc.nasa.gov/api/v3/events/EONET_19822,2026-04-27T23:10:04Z
EONET_19559,"Highway 36 Wildfire, Yuma, Colorado",Wildfires,IRWIN,closed,2026-04-13,39.733567,-102.165337,https://eonet.gsfc.nasa.gov/api/v3/events/EONET_19559,2026-04-27T23:10:04Z
EONET_19721,"PDT South-FFR RX Prescribed Fire, Grant, Minnesota",Wildfires,IRWIN,open,2026-04-13,46.012,-95.8944,https://eonet.gsfc.nasa.gov/api/v3/events/EONET_19721,2026-04-27T23:10:04Z
EONET_19719,"Ciba Road Wildfire, Washington, Alabama",Wildfires,IRWIN,open,2026-04-13,31.2669444,-88.0188889,https://eonet.gsfc.nasa.gov/api/v3/events/EONET_19719,2026-04-27T23:10:04Z
EONET_19560,"APQ CPT 10 Rx 0413 Prescribed Fire, Highlands, Florida",Wildfires,IRWIN,open,2026-04-13,27.630425,-81.158752,https://eonet.gsfc.nasa.gov/api/v3/events/EONET_19560,2026-04-27T23:10:04Z
EONET_19563,"rx-Young 1 Prescribed Fire, Jefferson, Wisconsin",Wildfires,IRWIN,open,2026-04-13,42.8455985,-88.630401,https://eonet.gsfc.nasa.gov/api/v3/events/EONET_19563,2026-04-27T23:10:04Z
EONET_19720,"RAFEY Wildfire, Mobile, Alabama",Wildfires,IRWIN,open,2026-04-12,31.0927778,-88.2997222,https://eonet.gsfc.nasa.gov/api/v3/events/EONET_19720,2026-04-27T23:10:04Z
EONET_19555,"Schwachheim Wildfire, Las Animas, Colorado",Wildfires,IRWIN,open,2026-04-12,37.011,-104.3737,https://eonet.gsfc.nasa.gov/api/v3/events/EONET_19555,2026-04-27T23:10:04Z
EONET_19565,"Smoke Show Wildfire, Perry, Mississippi",Wildfires,IRWIN,open,2026-04-12,31.092419,-89.117047,https://eonet.gsfc.nasa.gov/api/v3/events/EONET_19565,2026-04-27T23:10:04Z
EONET_19679,Flood in Canada 1103840,Floods,GDACS,closed,2026-04-12,45.5484022,-82.4374068090324,https://eonet.gsfc.nasa.gov/api/v3/events/EONET_19679,2026-04-27T23:10:04Z
EONET_19680,Flood in United States 1103841,Floods,GDACS,closed,2026-04-12,43.0386475,-87.9090751,https://eonet.gsfc.nasa.gov/api/v3/events/EONET_19680,2026-04-27T23:10:04Z
EONET_19562,"Horny Toad Wildfire, Carson, Texas",Wildfires,IRWIN,closed,2026-04-12,35.525982,-101.43079,https://eonet.gsfc.nasa.gov/api/v3/events/EONET_19562,2026-04-27T23:10:04Z
EONET_19594,Wildfire in Russian Federation 1028339,Wildfires,GDACS,closed,2026-04-12,48.82583135011112,133.55075538352804,https://eonet.gsfc.nasa.gov/api/v3/events/EONET_19594,2026-04-27T23:10:04Z
EONET_19595,Wildfire in Australia 1028340,Wildfires,GDACS,closed,2026-04-12,-13.998410732782235,132.35870237502922,https://eonet.gsfc.nasa.gov/api/v3/events/EONET_19595,2026-04-27T23:10:04Z
EONET_19596,Wildfire in Australia 1028341,Wildfires,GDACS,closed,2026-04-12,-16.52513061913085,131.71370203876432,https://eonet.gsfc.nasa.gov/api/v3/events/EONET_19596,2026-04-27T23:10:04Z
EONET_19597,Wildfire in Australia 1028342,Wildfires,GDACS,closed,2026-04-12,-19.05947615581003,128.42008259926396,https://eonet.gsfc.nasa.gov/api/v3/events/EONET_19597,2026-04-27T23:10:04Z
EONET_19637,Wildfire in China 1028390,Wildfires,GDACS,closed,2026-04-12,48.08248524016016,124.8382554672831,https://eonet.gsfc.nasa.gov/api/v3/events/EONET_19637,2026-04-27T23:10:04Z
EONET_19638,Wildfire in Australia 1028365,Wildfires,GDACS,closed,2026-04-12,-18.357095079337054,124.62981003397508,https://eonet.gsfc.nasa.gov/api/v3/events/EONET_19638,2026-04-27T23:10:04Z
EONET_19639,Wildfire in Venezuela 1028366,Wildfires,GDACS,closed,2026-04-12,9.171355643668514,-63.12775197516593,https://eonet.gsfc.nasa.gov/api/v3/events/EONET_19639,2026-04-27T23:10:04Z
EONET_19691,Wildfire in Australia 1028411,Wildfires,GDACS,closed,2026-04-12,-19.150692868384933,128.30467413801682,https://eonet.gsfc.nasa.gov/api/v3/events/EONET_19691,2026-04-27T23:10:04Z
EONET_19692,Wildfire in China 1028431,Wildfires,GDACS,closed,2026-04-12,48.753758753751356,123.77173683163203,https://eonet.gsfc.nasa.gov/api/v3/events/EONET_19692,2026-04-27T23:10:04Z
EONET_19693,Wildfire in Cuba 1028432,Wildfires,GDACS,closed,2026-04-12,22.4112723659874,-83.85274931695417,https://eonet.gsfc.nasa.gov/api/v3/events/EONET_19693,2026-04-27T23:10:04Z
EONET_19694,Wildfire in Australia 1028416,Wildfires,GDACS,closed,2026-04-12,-33.07277065854327,116.21463677677814,https://eonet.gsfc.nasa.gov/api/v3/events/EONET_19694,2026-04-27T23:10:04Z
EONET_19778,Wildfire in Thailand 1028489,Wildfires,GDACS,closed,2026-04-12,15.478566481690764,99.39759417180952,https://eonet.gsfc.nasa.gov/api/v3/events/EONET_19778,2026-04-27T23:10:04Z
EONET_19779,Wildfire in Australia 1028490,Wildfires,GDACS,closed,2026-04-12,-15.296013383881029,125.67933172052068,https://eonet.gsfc.nasa.gov/api/v3/events/EONET_19779,2026-04-27T23:10:04Z
EONET_19823,Wildfire in Guinea 1028513,Wildfires,GDACS,closed,2026-04-12,10.203351603471193,-12.229850805235902,https://eonet.gsfc.nasa.gov/api/v3/events/EONET_19823,2026-04-27T23:10:04Z
EONET_19824,Wildfire in India 1028514,Wildfires,GDACS,closed,2026-04-12,25.268823226338796,83.79244689011443,https://eonet.gsfc.nasa.gov/api/v3/events/EONET_19824,2026-04-27T23:10:04Z
EONET_19825,Wildfire in Guinea 1028515,Wildfires,GDACS,closed,2026-04-12,10.875869523688959,-13.25779400864287,https://eonet.gsfc.nasa.gov/api/v3/events/EONET_19825,2026-04-27T23:10:04Z
EONET_19826,Wildfire in Guinea 1028516,Wildfires,GDACS,closed,2026-04-12,11.084106106055543,-13.446627147306748,https://eonet.gsfc.nasa.gov/api/v3/events/EONET_19826,2026-04-27T23:10:04Z
EONET_19566,"Slate Branch Wildfire, Mingo, West Virginia",Wildfires,IRWIN,open,2026-04-12,37.704877,-82.163933,https://eonet.gsfc.nasa.gov/api/v3/events/EONET_19566,2026-04-27T23:10:04Z
EONET_19557,"STE - Alum Wildfire, McCreary, Kentucky",Wildfires,IRWIN,open,2026-04-12,36.75897,-84.53148,https://eonet.gsfc.nasa.gov/api/v3/events/EONET_19557,2026-04-27T23:10:04Z
EONET_19571,"HWY 351- DIXIE Wildfire, Dixie, Florida",Wildfires,IRWIN,open,2026-04-11,29.5366667,-83.2108333,https://eonet.gsfc.nasa.gov/api/v3/events/EONET_19571,2026-04-27T23:10:04Z
EONET_19591,Flood in Algeria 1103836,Floods,GDACS,closed,2026-04-11,36.3844273,1.37433290667506,https://eonet.gsfc.nasa.gov/api/v3/events/EONET_19591,2026-04-27T23:10:04Z
EONET_19640,Wildfire in Guinea 1028361,Wildfires,GDACS,closed,2026-04-11,10.958529082046038,-13.303207093358841,https://eonet.gsfc.nasa.gov/api/v3/events/EONET_19640,2026-04-27T23:10:04Z
EONET_19641,Wildfire in Sudan 1028375,Wildfires,GDACS,closed,2026-04-11,8.76269268238754,32.57973599367818,https://eonet.gsfc.nasa.gov/api/v3/events/EONET_19641,2026-04-27T23:10:04Z
EONET_19642,"Wildfire in Bangladesh, India 1028391",Wildfires,GDACS,closed,2026-04-11,23.388246359877982,92.31573751510669,https://eonet.gsfc.nasa.gov/api/v3/events/EONET_19642,2026-04-27T23:10:04Z
EONET_19643,Wildfire in Australia 1028392,Wildfires,GDACS,closed,2026-04-11,-17.995578317961513,130.19733343464583,https://eonet.gsfc.nasa.gov/api/v3/events/EONET_19643,2026-04-27T23:10:04Z
EONET_19644,Wildfire in Australia 1028393,Wildfires,GDACS,closed,2026-04-11,-16.839337492556062,126.43885724696148,https://eonet.gsfc.nasa.gov/api/v3/events/EONET_19644,2026-04-27T23:10:04Z
EONET_19645,Wildfire in Sudan 1028362,Wildfires,GDACS,closed,2026-04-11,9.199855819613449,31.376187337756047,https://eonet.gsfc.nasa.gov/api/v3/events/EONET_19645,2026-04-27T23:10:04Z
EONET_19695,Wildfire in India 1028412,Wildfires,GDACS,closed,2026-04-11,27.227335234906416,82.9535285530989,https://eonet.gsfc.nasa.gov/api/v3/events/EONET_19695,2026-04-27T23:10:04Z
EONET_19740,Wildfire in Guinea 1028446,Wildfires,GDACS,closed,2026-04-11,10.910765533658177,-13.432434063671852,https://eonet.gsfc.nasa.gov/api/v3/events/EONET_19740,2026-04-27T23:10:04Z
EONET_19741,Wildfire in Mexico 1028464,Wildfires,GDACS,closed,2026-04-11,17.203020744423767,-99.18192187967799,https://eonet.gsfc.nasa.gov/api/v3/events/EONET_19741,2026-04-27T23:10:04Z
EONET_19763,Wildfire in Thailand 1028477,Wildfires,GDACS,closed,2026-04-11,15.00881666678591,99.14753394850977,https://eonet.gsfc.nasa.gov/api/v3/events/EONET_19763,2026-04-27T23:10:04Z
EONET_19764,Wildfire in India 1028478,Wildfires,GDACS,closed,2026-04-11,23.780246973781235,92.05620234564458,https://eonet.gsfc.nasa.gov/api/v3/events/EONET_19764,2026-04-27T23:10:04Z
EONET_19765,Wildfire in Viet Nam 1028479,Wildfires,GDACS,closed,2026-04-11,10.310248180319073,104.77890271361927,https://eonet.gsfc.nasa.gov/api/v3/events/EONET_19765,2026-04-27T23:10:04Z
EONET_19780,Wildfire in Thailand 1028500,Wildfires,GDACS,closed,2026-04-11,18.88427299874251,99.3110769782556,https://eonet.gsfc.nasa.gov/api/v3/events/EONET_19780,2026-04-27T23:10:04Z
EONET_19781,Wildfire in Thailand 1028502,Wildfires,GDACS,closed,2026-04-11,18.60421106207313,101.08791630552638,https://eonet.gsfc.nasa.gov/api/v3/events/EONET_19781,2026-04-27T23:10:04Z
EONET_19782,Wildfire in Nepal 1028501,Wildfires,GDACS,closed,2026-04-11,28.562104572719,82.06494090767173,https://eonet.gsfc.nasa.gov/api/v3/events/EONET_19782,2026-04-27T23:10:04Z
EONET_19827,Wildfire in Guinea 1028517,Wildfires,GDACS,closed,2026-04-11,11.193395083824594,-13.274838315775634,https://eonet.gsfc.nasa.gov/api/v3/events/EONET_19827,2026-04-27T23:10:04Z
EONET_19561,"79 Wildfire, Custer, South Dakota",Wildfires,IRWIN,open,2026-04-11,43.687519,-103.249124,https://eonet.gsfc.nasa.gov/api/v3/events/EONET_19561,2026-04-27T23:10:04Z
EONET_19564,"ANF Bullet Creek C-27 RX Prescribed Fire, San Augustine, Texas",Wildfires,IRWIN,open,2026-04-11,31.276467,-94.302133,https://eonet.gsfc.nasa.gov/api/v3/events/EONET_19564,2026-04-27T23:10:04Z
EONET_19573,"APQ CPT 11 Rx 0411 Prescribed Fire, Highlands, Florida",Wildfires,IRWIN,open,2026-04-11,27.572409,-81.259689,https://eonet.gsfc.nasa.gov/api/v3/events/EONET_19573,2026-04-27T23:10:04Z
EONET_19302,Tropical Cyclone Maila,Severe Storms,JTWC,closed,2026-04-11,-7.8,154.6,https://eonet.gsfc.nasa.gov/api/v3/events/EONET_19302,2026-04-27T23:10:04Z
EONET_19569,"Smooth Eddy Wildfire, Hansford, Texas",Wildfires,IRWIN,open,2026-04-10,36.2416667,-101.5497222,https://eonet.gsfc.nasa.gov/api/v3/events/EONET_19569,2026-04-27T23:10:04Z
EONET_19570,"Mary 15 Wildfire, Texas, Oklahoma",Wildfires,IRWIN,open,2026-04-10,36.8186111,-101.7577778,https://eonet.gsfc.nasa.gov/api/v3/events/EONET_19570,2026-04-27T23:10:04Z
EONET_19568,"Lightning Roll Wildfire, Beaver, Oklahoma",Wildfires,IRWIN,open,2026-04-10,36.7338889,-100.7680556,https://eonet.gsfc.nasa.gov/api/v3/events/EONET_19568,2026-04-27T23:10:04Z
EONET_19537,Flood in Venezuela 1103834,Floods,GDACS,closed,2026-04-10,10.4260093,-67.034697,https://eonet.gsfc.nasa.gov/api/v3/events/EONET_19537,2026-04-27T23:10:04Z
EONET_19513,Wildfire in Russian Federation 1028298,Wildfires,GDACS,closed,2026-04-10,48.827418692270335,133.33951391365136,https://eonet.gsfc.nasa.gov/api/v3/events/EONET_19513,2026-04-27T23:10:04Z
EONET_19538,Wildfire in Venezuela 1028318,Wildfires,GDACS,closed,2026-04-10,9.674734335988916,-61.583095650577924,https://eonet.gsfc.nasa.gov/api/v3/events/EONET_19538,2026-04-27T23:10:04Z
EONET_19598,Wildfire in Australia 1028343,Wildfires,GDACS,closed,2026-04-10,-16.080830382071152,125.98186017344018,https://eonet.gsfc.nasa.gov/api/v3/events/EONET_19598,2026-04-27T23:10:04Z
EONET_19646,Wildfire in India 1028351,Wildfires,GDACS,closed,2026-04-10,19.4632549009831,80.98222725441049,https://eonet.gsfc.nasa.gov/api/v3/events/EONET_19646,2026-04-27T23:10:04Z
EONET_19647,Wildfire in India 1028394,Wildfires,GDACS,closed,2026-04-10,25.12604495401843,83.95554551909963,https://eonet.gsfc.nasa.gov/api/v3/events/EONET_19647,2026-04-27T23:10:04Z
EONET_19648,Wildfire in Australia 1028395,Wildfires,GDACS,closed,2026-04-10,-16.052681232469748,125.87395383354223,https://eonet.gsfc.nasa.gov/api/v3/events/EONET_19648,2026-04-27T23:10:04Z
EONET_19649,Wildfire in Russian Federation 1028376,Wildfires,GDACS,closed,2026-04-10,48.856163557169474,132.1618628175225,https://eonet.gsfc.nasa.gov/api/v3/events/EONET_19649,2026-04-27T23:10:04Z
EONET_19650,Wildfire in Thailand 1028367,Wildfires,GDACS,closed,2026-04-10,17.945129467753162,102.02873863665755,https://eonet.gsfc.nasa.gov/api/v3/events/EONET_19650,2026-04-27T23:10:04Z
EONET_19696,Wildfire in Australia 1028433,Wildfires,GDACS,closed,2026-04-10,-15.51998691544617,126.40105163403383,https://eonet.gsfc.nasa.gov/api/v3/events/EONET_19696,2026-04-27T23:10:04Z
EONET_19697,Wildfire in Australia 1028434,Wildfires,GDACS,closed,2026-04-10,-17.30362310051888,125.68357171259015,https://eonet.gsfc.nasa.gov/api/v3/events/EONET_19697,2026-04-27T23:10:04Z
EONET_19698,Wildfire in Thailand 1028417,Wildfires,GDACS,closed,2026-04-10,17.13480605932642,98.94827892614012,https://eonet.gsfc.nasa.gov/api/v3/events/EONET_19698,2026-04-27T23:10:04Z
EONET_19699,Wildfire in Australia 1028418,Wildfires,GDACS,closed,2026-04-10,-15.85541000395289,125.70259309357569,https://eonet.gsfc.nasa.gov/api/v3/events/EONET_19699,2026-04-27T23:10:04Z
EONET_19700,Wildfire in India 1028408,Wildfires,GDACS,closed,2026-04-10,27.0286173062282,83.56555824367679,https://eonet.gsfc.nasa.gov/api/v3/events/EONET_19700,2026-04-27T23:10:04Z
EONET_19742,Wildfire in Sudan 1028440,Wildfires,GDACS,closed,2026-04-10,8.623828510586716,32.541839793467624,https://eonet.gsfc.nasa.gov/api/v3/events/EONET_19742,2026-04-27T23:10:04Z
EONET_19766,Wildfire in Bangladesh 1028480,Wildfires,GDACS,closed,2026-04-10,23.419398242379884,92.03122311973955,https://eonet.gsfc.nasa.gov/api/v3/events/EONET_19766,2026-04-27T23:10:04Z
EONET_19783,Wildfire in India 1028493,Wildfires,GDACS,closed,2026-04-10,25.19682864212445,83.85081860207208,https://eonet.gsfc.nasa.gov/api/v3/events/EONET_19783,2026-04-27T23:10:04Z
EONET_19828,Wildfire in India 1028518,Wildfires,GDACS,closed,2026-04-10,18.65679344583959,81.14519075182886,https://eonet.gsfc.nasa.gov/api/v3/events/EONET_19828,2026-04-27T23:10:04Z
EONET_19829,Wildfire in Thailand 1028519,Wildfires,GDACS,closed,2026-04-10,17.275991243561524,98.9772420302785,https://eonet.gsfc.nasa.gov/api/v3/events/EONET_19829,2026-04-27T23:10:04Z
EONET_19578,"Riceville RX Prescribed Fire, Crawford, Indiana",Wildfires,IRWIN,closed,2026-04-10,38.3166,-86.6616,https://eonet.gsfc.nasa.gov/api/v3/events/EONET_19578,2026-04-27T23:10:04Z
EONET_19583,"Chickasawhay CPT 438 441 RX Prescribed Fire, Wayne, Mississippi",Wildfires,IRWIN,open,2026-04-10,31.5038,-88.6813,https://eonet.gsfc.nasa.gov/api/v3/events/EONET_19583,2026-04-27T23:10:04Z
EONET_19577,"Burn Unit 16 RX Prescribed Fire, Sherburne, Minnesota",Wildfires,IRWIN,open,2026-04-10,45.525781,-93.706253,https://eonet.gsfc.nasa.gov/api/v3/events/EONET_19577,2026-04-27T23:10:04Z
EONET_19581,"Bienville CPT 43 44 RX Prescribed Fire, Scott, Mississippi",Wildfires,IRWIN,open,2026-04-10,32.3809,-89.5273,https://eonet.gsfc.nasa.gov/api/v3/events/EONET_19581,2026-04-27T23:10:04Z
EONET_19584,"RX Middle Northfork 4/7 Prescribed Fire, Garland, Arkansas",Wildfires,IRWIN,open,2026-04-10,34.716667,-93.266667,https://eonet.gsfc.nasa.gov/api/v3/events/EONET_19584,2026-04-27T23:10:04Z
EONET_6288,Iceberg D32,Sea and Lake Ice,NATICE,open,2026-04-10,-66.36,-47.66,https://eonet.gsfc.nasa.gov/api/v3/events/EONET_6288,2026-04-27T23:10:04Z
EONET_19556,"Purple Monster Wildfire, Oldham, Texas",Wildfires,IRWIN,closed,2026-04-09,35.381875,-102.378681,https://eonet.gsfc.nasa.gov/api/v3/events/EONET_19556,2026-04-27T23:10:04Z
EONET_19592,Flood in Spain 1103837,Floods,GDACS,closed,2026-04-09,37.1734995,-3.5995337,https://eonet.gsfc.nasa.gov/api/v3/events/EONET_19592,2026-04-27T23:10:04Z
EONET_19482,Wildfire in Mongolia 1028274,Wildfires,GDACS,closed,2026-04-09,46.80303310085913,118.50794117668437,https://eonet.gsfc.nasa.gov/api/v3/events/EONET_19482,2026-04-27T23:10:04Z
EONET_19514,Wildfire in Australia 1028290,Wildfires,GDACS,closed,2026-04-09,-17.581340970811254,127.48348564742122,https://eonet.gsfc.nasa.gov/api/v3/events/EONET_19514,2026-04-27T23:10:04Z
EONET_19539,Wildfire in Australia 1028319,Wildfires,GDACS,closed,2026-04-09,-17.372979034187075,125.80617185712205,https://eonet.gsfc.nasa.gov/api/v3/events/EONET_19539,2026-04-27T23:10:04Z
EONET_19540,Wildfire in Australia 1028320,Wildfires,GDACS,closed,2026-04-09,-17.206727948162623,125.14782678514189,https://eonet.gsfc.nasa.gov/api/v3/events/EONET_19540,2026-04-27T23:10:04Z
EONET_19599,"Wildfire in India, Bangladesh 1028324",Wildfires,GDACS,closed,2026-04-09,23.76256862625055,91.96304270974551,https://eonet.gsfc.nasa.gov/api/v3/events/EONET_19599,2026-04-27T23:10:04Z
EONET_19600,Wildfire in Australia 1028344,Wildfires,GDACS,closed,2026-04-09,-19.61756035970583,136.20267504872146,https://eonet.gsfc.nasa.gov/api/v3/events/EONET_19600,2026-04-27T23:10:04Z
EONET_19601,Wildfire in Australia 1028329,Wildfires,GDACS,closed,2026-04-09,-17.40605234807318,125.81996131764441,https://eonet.gsfc.nasa.gov/api/v3/events/EONET_19601,2026-04-27T23:10:04Z
EONET_19602,Wildfire in Australia 1028330,Wildfires,GDACS,closed,2026-04-09,-17.47650806447057,125.45993691263584,https://eonet.gsfc.nasa.gov/api/v3/events/EONET_19602,2026-04-27T23:10:04Z
EONET_19651,Wildfire in India 1028371,Wildfires,GDACS,closed,2026-04-09,26.471098013550026,83.53164279064266,https://eonet.gsfc.nasa.gov/api/v3/events/EONET_19651,2026-04-27T23:10:04Z
EONET_19652,Wildfire in India 1028352,Wildfires,GDACS,closed,2026-04-09,26.61963153977634,83.34193337200297,https://eonet.gsfc.nasa.gov/api/v3/events/EONET_19652,2026-04-27T23:10:04Z
EONET_19653,Wildfire in Cuba 1028368,Wildfires,GDACS,closed,2026-04-09,22.53605439012259,-84.06182678121098,https://eonet.gsfc.nasa.gov/api/v3/events/EONET_19653,2026-04-27T23:10:04Z
EONET_19654,Wildfire in Australia 1028369,Wildfires,GDACS,closed,2026-04-09,-16.625592235403833,124.7556316323466,https://eonet.gsfc.nasa.gov/api/v3/events/EONET_19654,2026-04-27T23:10:04Z
EONET_19655,Wildfire in Australia 1028396,Wildfires,GDACS,closed,2026-04-09,-17.532460149821652,125.65062058104266,https://eonet.gsfc.nasa.gov/api/v3/events/EONET_19655,2026-04-27T23:10:04Z
EONET_19656,Wildfire in Myanmar 1028397,Wildfires,GDACS,closed,2026-04-09,23.62625167683479,93.83100515415117,https://eonet.gsfc.nasa.gov/api/v3/events/EONET_19656,2026-04-27T23:10:04Z
EONET_19657,Wildfire in Bangladesh 1028398,Wildfires,GDACS,closed,2026-04-09,23.422366037739252,92.12033205506941,https://eonet.gsfc.nasa.gov/api/v3/events/EONET_19657,2026-04-27T23:10:04Z
EONET_19658,"Wildfire in Bangladesh, India 1028399",Wildfires,GDACS,closed,2026-04-09,23.542417918617364,91.9646052089408,https://eonet.gsfc.nasa.gov/api/v3/events/EONET_19658,2026-04-27T23:10:04Z
EONET_19659,"Wildfire in India, Nepal 1028353",Wildfires,GDACS,closed,2026-04-09,27.393266109194236,83.08612151979501,https://eonet.gsfc.nasa.gov/api/v3/events/EONET_19659,2026-04-27T23:10:04Z
EONET_19701,Wildfire in Bangladesh 1028409,Wildfires,GDACS,closed,2026-04-09,23.04282291796066,92.31976119582109,https://eonet.gsfc.nasa.gov/api/v3/events/EONET_19701,2026-04-27T23:10:04Z
EONET_19702,Wildfire in Myanmar 1028424,Wildfires,GDACS,closed,2026-04-09,21.749932693589,93.90613483143264,https://eonet.gsfc.nasa.gov/api/v3/events/EONET_19702,2026-04-27T23:10:04Z
EONET_19703,Wildfire in India 1028435,Wildfires,GDACS,closed,2026-04-09,25.123771215258675,83.90196595888632,https://eonet.gsfc.nasa.gov/api/v3/events/EONET_19703,2026-04-27T23:10:04Z
EONET_19743,Wildfire in Nepal 1028441,Wildfires,GDACS,closed,2026-04-09,27.29306217587272,84.8533495070888,https://eonet.gsfc.nasa.gov/api/v3/events/EONET_19743,2026-04-27T23:10:04Z
EONET_19744,Wildfire in Australia 1028465,Wildfires,GDACS,closed,2026-04-09,-17.484984521109414,125.78229622793926,https://eonet.gsfc.nasa.gov/api/v3/events/EONET_19744,2026-04-27T23:10:04Z
EONET_19767,Wildfire in Laos 1028481,Wildfires,GDACS,closed,2026-04-09,20.156963815545407,101.03765184027426,https://eonet.gsfc.nasa.gov/api/v3/events/EONET_19767,2026-04-27T23:10:04Z
EONET_19768,Wildfire in Thailand 1028471,Wildfires,GDACS,closed,2026-04-09,17.145450608855814,101.4152293847596,https://eonet.gsfc.nasa.gov/api/v3/events/EONET_19768,2026-04-27T23:10:04Z
EONET_19784,Wildfire in Thailand 1028483,Wildfires,GDACS,closed,2026-04-09,19.09216118570587,100.43206046789817,https://eonet.gsfc.nasa.gov/api/v3/events/EONET_19784,2026-04-27T23:10:04Z
EONET_19785,Wildfire in Viet Nam 1028484,Wildfires,GDACS,closed,2026-04-09,10.830968764623814,105.14153927644801,https://eonet.gsfc.nasa.gov/api/v3/events/EONET_19785,2026-04-27T23:10:04Z
EONET_19786,Wildfire in Thailand 1028495,Wildfires,GDACS,closed,2026-04-09,18.11154648930147,100.56010079847658,https://eonet.gsfc.nasa.gov/api/v3/events/EONET_19786,2026-04-27T23:10:04Z
EONET_19830,Wildfire in India 1028520,Wildfires,GDACS,closed,2026-04-09,19.930815939387013,83.60277564324704,https://eonet.gsfc.nasa.gov/api/v3/events/EONET_19830,2026-04-27T23:10:04Z
EONET_19405,"rx-Northern Scupp EWO Prescribed Fire, Waukesha, Wisconsin",Wildfires,IRWIN,open,2026-04-09,42.9227232,-88.483243,https://eonet.gsfc.nasa.gov/api/v3/events/EONET_19405,2026-04-27T23:10:04Z
EONET_19412,"HARRISON Wildfire, Osage, Oklahoma",Wildfires,IRWIN,open,2026-04-09,36.568752,-96.849207,https://eonet.gsfc.nasa.gov/api/v3/events/EONET_19412,2026-04-27T23:10:04Z
EONET_19414,"JOY Wildfire, Osage, Oklahoma",Wildfires,IRWIN,open,2026-04-09,36.471122,-96.232358,https://eonet.gsfc.nasa.gov/api/v3/events/EONET_19414,2026-04-27T23:10:04Z
EONET_19585,"DeSoto BB 8301 C-214 RX Prescribed Fire, Perry, Mississippi",Wildfires,IRWIN,open,2026-04-09,30.974167,-88.866111,https://eonet.gsfc.nasa.gov/api/v3/events/EONET_19585,2026-04-27T23:10:04Z
EONET_19855,"Cameron Creek Unit 1 RX Prescribed Fire, Fergus, Montana",Wildfires,IRWIN,open,2026-04-09,46.751617,-109.100917,https://eonet.gsfc.nasa.gov/api/v3/events/EONET_19855,2026-04-27T23:10:04Z
EONET_19579,"Bienville CPT 44 45 RX Prescribed Fire, Scott, Mississippi",Wildfires,IRWIN,open,2026-04-09,32.3711,-89.5408,https://eonet.gsfc.nasa.gov/api/v3/events/EONET_19579,2026-04-27T23:10:04Z
EONET_19415,"Rx Cherokee 3464 Prescribed Fire, Cherokee, Texas",Wildfires,IRWIN,open,2026-04-09,31.56518,-95.13378,https://eonet.gsfc.nasa.gov/api/v3/events/EONET_19415,2026-04-27T23:10:04Z
EONET_19416,"Rosindale Road Wildfire, Bladen, North Carolina",Wildfires,IRWIN,open,2026-04-09,34.435,-78.5313889,https://eonet.gsfc.nasa.gov/api/v3/events/EONET_19416,2026-04-27T23:10:04Z
EONET_19586,"RX BO/MAG Flat Top 1 Prescribed Fire, Logan, Arkansas",Wildfires,IRWIN,open,2026-04-09,35.243252,-93.666974,https://eonet.gsfc.nasa.gov/api/v3/events/EONET_19586,2026-04-27T23:10:04Z
EONET_19406,"RX Blanchard 2 Prescribed Fire, Stone, Arkansas",Wildfires,IRWIN,open,2026-04-09,35.95415,-92.167783,https://eonet.gsfc.nasa.gov/api/v3/events/EONET_19406,2026-04-27T23:10:04Z
EONET_19418,"HUGHEY Wildfire, Osage, Oklahoma",Wildfires,IRWIN,open,2026-04-09,36.695248,-96.059996,https://eonet.gsfc.nasa.gov/api/v3/events/EONET_19418,2026-04-27T23:10:04Z
EONET_19403,"Chickasawhay CPT 378 RX Prescribed Fire, Wayne, Mississippi",Wildfires,IRWIN,open,2026-04-09,31.5102,-88.8983,https://eonet.gsfc.nasa.gov/api/v3/events/EONET_19403,2026-04-27T23:10:04Z
EONET_19588,"RX PHILLIPS ORCHARD Prescribed Fire, Garland, Arkansas",Wildfires,IRWIN,open,2026-04-09,34.664083,-93.187444,https://eonet.gsfc.nasa.gov/api/v3/events/EONET_19588,2026-04-27T23:10:04Z
EONET_19590,"RX PCS South Waldron Ridge 1&amp;2 Prescribed Fire, Scott, Arkansas",Wildfires,IRWIN,open,2026-04-09,34.869867,-93.970228,https://eonet.gsfc.nasa.gov/api/v3/events/EONET_19590,2026-04-27T23:10:04Z
EONET_19580,"Homochitto BB 59 RX Prescribed Fire, Franklin, Mississippi",Wildfires,IRWIN,open,2026-04-09,31.401,-90.966,https://eonet.gsfc.nasa.gov/api/v3/events/EONET_19580,2026-04-27T23:10:04Z
EONET_19404,"RX CALE BU 363 Prescribed Fire, Rapides, Louisiana",Wildfires,IRWIN,open,2026-04-09,31.142233,-92.634817,https://eonet.gsfc.nasa.gov/api/v3/events/EONET_19404,2026-04-27T23:10:04Z
EONET_19410,"Compartment 180 RX Prescribed Fire, Greene, Georgia",Wildfires,IRWIN,open,2026-04-09,33.655288,-83.27194,https://eonet.gsfc.nasa.gov/api/v3/events/EONET_19410,2026-04-27T23:10:04Z
EONET_19329,Tropical Cyclone Vaianu,Severe Storms,JTWC,closed,2026-04-09,-26.8,179,https://eonet.gsfc.nasa.gov/api/v3/events/EONET_19329,2026-04-27T23:10:04Z
EONET_19419,"HC 1 Wildfire, San Miguel, New Mexico",Wildfires,IRWIN,open,2026-04-08,35.68405,-104.67037,https://eonet.gsfc.nasa.gov/api/v3/events/EONET_19419,2026-04-27T23:10:04Z
EONET_19424,"MA Mainline Non-Statistical/Other, Polk, Texas",Wildfires,IRWIN,open,2026-04-08,30.492511,-94.638858,https://eonet.gsfc.nasa.gov/api/v3/events/EONET_19424,2026-04-27T23:10:04Z
EONET_19463,Wildfire in Australia 1028234,Wildfires,GDACS,closed,2026-04-08,-16.86634549176335,125.02254306305257,https://eonet.gsfc.nasa.gov/api/v3/events/EONET_19463,2026-04-27T23:10:04Z
EONET_19464,Wildfire in Australia 1028235,Wildfires,GDACS,closed,2026-04-08,-32.54535710664647,116.3675376336521,https://eonet.gsfc.nasa.gov/api/v3/events/EONET_19464,2026-04-27T23:10:04Z
EONET_19483,Wildfire in Australia 1028275,Wildfires,GDACS,closed,2026-04-08,-15.88228251063748,131.098073582243,https://eonet.gsfc.nasa.gov/api/v3/events/EONET_19483,2026-04-27T23:10:04Z
EONET_19515,Wildfire in Australia 1028299,Wildfires,GDACS,closed,2026-04-08,-32.03710597555488,116.47479618689897,https://eonet.gsfc.nasa.gov/api/v3/events/EONET_19515,2026-04-27T23:10:04Z
EONET_19603,Wildfire in Laos 1028345,Wildfires,GDACS,closed,2026-04-08,20.56922442024931,101.72190861353543,https://eonet.gsfc.nasa.gov/api/v3/events/EONET_19603,2026-04-27T23:10:04Z
EONET_19604,Wildfire in India 1028325,Wildfires,GDACS,closed,2026-04-08,13.986825038892833,79.11953493933217,https://eonet.gsfc.nasa.gov/api/v3/events/EONET_19604,2026-04-27T23:10:04Z
EONET_19605,Wildfire in India 1028336,Wildfires,GDACS,closed,2026-04-08,22.14603943374794,79.36342614099053,https://eonet.gsfc.nasa.gov/api/v3/events/EONET_19605,2026-04-27T23:10:04Z
EONET_19660,Wildfire in India 1028354,Wildfires,GDACS,closed,2026-04-08,27.280520411711937,82.66933143942349,https://eonet.gsfc.nasa.gov/api/v3/events/EONET_19660,2026-04-27T23:10:04Z
EONET_19661,Wildfire in India 1028355,Wildfires,GDACS,closed,2026-04-08,26.37827719204369,83.70835871367413,https://eonet.gsfc.nasa.gov/api/v3/events/EONET_19661,2026-04-27T23:10:04Z
EONET_19662,Wildfire in India 1028372,Wildfires,GDACS,closed,2026-04-08,27.02323486917199,83.04525750306911,https://eonet.gsfc.nasa.gov/api/v3/events/EONET_19662,2026-04-27T23:10:04Z
EONET_19745,Wildfire in Thailand 1028451,Wildfires,GDACS,closed,2026-04-08,17.577350156417836,100.83802055035993,https://eonet.gsfc.nasa.gov/api/v3/events/EONET_19745,2026-04-27T23:10:04Z
EONET_19746,Wildfire in Laos 1028447,Wildfires,GDACS,closed,2026-04-08,20.25842973010114,102.71026832868604,https://eonet.gsfc.nasa.gov/api/v3/events/EONET_19746,2026-04-27T23:10:04Z
EONET_19747,Wildfire in Sudan 1028442,Wildfires,GDACS,closed,2026-04-08,8.818112552268088,30.064402756086185,https://eonet.gsfc.nasa.gov/api/v3/events/EONET_19747,2026-04-27T23:10:04Z
EONET_19769,Wildfire in Thailand 1028482,Wildfires,GDACS,closed,2026-04-08,17.561202225069067,100.7313464863159,https://eonet.gsfc.nasa.gov/api/v3/events/EONET_19769,2026-04-27T23:10:04Z
EONET_19787,Wildfire in Thailand 1028496,Wildfires,GDACS,closed,2026-04-08,14.695458247957225,98.42510111504606,https://eonet.gsfc.nasa.gov/api/v3/events/EONET_19787,2026-04-27T23:10:04Z
EONET_19788,Wildfire in Sudan 1028485,Wildfires,GDACS,closed,2026-04-08,8.722408016965785,32.89692638802807,https://eonet.gsfc.nasa.gov/api/v3/events/EONET_19788,2026-04-27T23:10:04Z
EONET_19420,"SUNNY Wildfire, Osage, Oklahoma",Wildfires,IRWIN,open,2026-04-08,36.779277,-96.225036,https://eonet.gsfc.nasa.gov/api/v3/events/EONET_19420,2026-04-27T23:10:04Z
EONET_19567,"Turkey Creek Wildfire, Letcher, Kentucky",Wildfires,IRWIN,closed,2026-04-08,37.04750498,-83.06410789,https://eonet.gsfc.nasa.gov/api/v3/events/EONET_19567,2026-04-27T23:10:04Z
EONET_19438,"Tige - West Celina RX Prescribed Fire, Perry, Indiana",Wildfires,IRWIN,open,2026-04-08,38.2051,-86.6266,https://eonet.gsfc.nasa.gov/api/v3/events/EONET_19438,2026-04-27T23:10:04Z
EONET_19426,"RX BO/MAG Chickalah Mtn Prescribed Fire, Yell, Arkansas",Wildfires,IRWIN,open,2026-04-08,35.1749,-93.426325,https://eonet.gsfc.nasa.gov/api/v3/events/EONET_19426,2026-04-27T23:10:04Z
EONET_19427,"DeSoto BB 7310 C-7 RX Prescribed Fire, Perry, Mississippi",Wildfires,IRWIN,open,2026-04-08,31.05635,-88.859583,https://eonet.gsfc.nasa.gov/api/v3/events/EONET_19427,2026-04-27T23:10:04Z
EONET_19429,"Bienville CPT 5 7 RX Prescribed Fire, Scott, Mississippi",Wildfires,IRWIN,open,2026-04-08,32.5163,-89.6524,https://eonet.gsfc.nasa.gov/api/v3/events/EONET_19429,2026-04-27T23:10:04Z
EONET_19434,"Holly Springs IU 14-1 RX Prescribed Fire, Tippah, Mississippi",Wildfires,IRWIN,open,2026-04-08,34.8459,-89.0287,https://eonet.gsfc.nasa.gov/api/v3/events/EONET_19434,2026-04-27T23:10:04Z
EONET_19437,"Homochitto BB51 Sub2 RX Prescribed Fire, Franklin, Mississippi",Wildfires,IRWIN,open,2026-04-08,31.402,-90.984,https://eonet.gsfc.nasa.gov/api/v3/events/EONET_19437,2026-04-27T23:10:04Z
EONET_19421,"SNF Stark Tract RX Prescribed Fire, Newton, Texas",Wildfires,IRWIN,open,2026-04-08,31.174617,-93.626833,https://eonet.gsfc.nasa.gov/api/v3/events/EONET_19421,2026-04-27T23:10:04Z
EONET_19436,"SHNF C-26/C-27/C-28 RX Prescribed Fire, Montgomery, Texas",Wildfires,IRWIN,open,2026-04-08,30.529633,-95.652333,https://eonet.gsfc.nasa.gov/api/v3/events/EONET_19436,2026-04-27T23:10:04Z
EONET_19435,"SHNF C-51 RX Prescribed Fire, Walker, Texas",Wildfires,IRWIN,open,2026-04-08,30.536367,-95.569167,https://eonet.gsfc.nasa.gov/api/v3/events/EONET_19435,2026-04-27T23:10:04Z
EONET_19430,"RX Key Mountain East Prescribed Fire, Scott, Arkansas",Wildfires,IRWIN,open,2026-04-08,34.761897,-94.096898,https://eonet.gsfc.nasa.gov/api/v3/events/EONET_19430,2026-04-27T23:10:04Z
EONET_19433,"RX Spud Rock Prescribed Fire, Franklin, Arkansas",Wildfires,IRWIN,open,2026-04-08,35.734,-93.9,https://eonet.gsfc.nasa.gov/api/v3/events/EONET_19433,2026-04-27T23:10:04Z
EONET_19423,"RX Fourche Valley Unit 1 and 2 Prescribed Fire, Yell, Arkansas",Wildfires,IRWIN,open,2026-04-08,34.933333,-93.666667,https://eonet.gsfc.nasa.gov/api/v3/events/EONET_19423,2026-04-27T23:10:04Z
EONET_19431,"RX County Liine Prescribed Fire, Newton, Arkansas",Wildfires,IRWIN,open,2026-04-08,35.845119,-93.523297,https://eonet.gsfc.nasa.gov/api/v3/events/EONET_19431,2026-04-27T23:10:04Z
EONET_19859,"Piton de la Fournaise, Reunion (France)",Volcanoes,SIVolcano,open,2026-04-08,-21.244,55.708,https://eonet.gsfc.nasa.gov/api/v3/events/EONET_19859,2026-04-27T23:10:04Z
EONET_19428,"School House B RX Prescribed Fire, Clay, Alabama",Wildfires,IRWIN,open,2026-04-07,33.155833,-86.091944,https://eonet.gsfc.nasa.gov/api/v3/events/EONET_19428,2026-04-27T23:10:04Z
EONET_19593,Flood in Philippines 1103838,Floods,GDACS,closed,2026-04-07,6.8303517,125.3970848,https://eonet.gsfc.nasa.gov/api/v3/events/EONET_19593,2026-04-27T23:10:04Z
EONET_19465,Wildfire in Russian Federation 1028236,Wildfires,GDACS,closed,2026-04-07,48.644257479176055,132.2380501949027,https://eonet.gsfc.nasa.gov/api/v3/events/EONET_19465,2026-04-27T23:10:04Z
EONET_19466,Wildfire in Australia 1028237,Wildfires,GDACS,closed,2026-04-07,-16.32533977956783,128.5432714747107,https://eonet.gsfc.nasa.gov/api/v3/events/EONET_19466,2026-04-27T23:10:04Z
EONET_19516,Wildfire in Thailand 1028287,Wildfires,GDACS,closed,2026-04-07,18.107236172904408,102.08287513020322,https://eonet.gsfc.nasa.gov/api/v3/events/EONET_19516,2026-04-27T23:10:04Z
EONET_19517,Wildfire in Australia 1028291,Wildfires,GDACS,closed,2026-04-07,-19.522199472009532,135.60227835024833,https://eonet.gsfc.nasa.gov/api/v3/events/EONET_19517,2026-04-27T23:10:04Z
EONET_19606,Wildfire in India 1028337,Wildfires,GDACS,closed,2026-04-07,26.883237758063704,82.93991473880995,https://eonet.gsfc.nasa.gov/api/v3/events/EONET_19606,2026-04-27T23:10:04Z
EONET_19607,Wildfire in India 1028346,Wildfires,GDACS,closed,2026-04-07,26.877598233075833,82.92682400641752,https://eonet.gsfc.nasa.gov/api/v3/events/EONET_19607,2026-04-27T23:10:04Z
EONET_19608,Wildfire in Nicaragua 1028347,Wildfires,GDACS,closed,2026-04-07,13.695603078044831,-86.57858927990024,https://eonet.gsfc.nasa.gov/api/v3/events/EONET_19608,2026-04-27T23:10:04Z
EONET_19609,Wildfire in Laos 1028331,Wildfires,GDACS,closed,2026-04-07,18.440833152509455,102.85460766084098,https://eonet.gsfc.nasa.gov/api/v3/events/EONET_19609,2026-04-27T23:10:04Z
EONET_19704,Wildfire in Thailand 1028419,Wildfires,GDACS,closed,2026-04-07,17.925565542025502,102.10678797749111,https://eonet.gsfc.nasa.gov/api/v3/events/EONET_19704,2026-04-27T23:10:04Z
EONET_19705,Wildfire in Laos 1028420,Wildfires,GDACS,closed,2026-04-07,19.05865979105536,103.16706052889053,https://eonet.gsfc.nasa.gov/api/v3/events/EONET_19705,2026-04-27T23:10:04Z
EONET_19706,"Wildfire in Thailand, Myanmar 1028436",Wildfires,GDACS,closed,2026-04-07,13.702559547021997,99.18646553075378,https://eonet.gsfc.nasa.gov/api/v3/events/EONET_19706,2026-04-27T23:10:04Z
EONET_19748,Wildfire in Sudan 1028443,Wildfires,GDACS,closed,2026-04-07,8.800061603276145,32.9623250063369,https://eonet.gsfc.nasa.gov/api/v3/events/EONET_19748,2026-04-27T23:10:04Z
EONET_19749,Wildfire in Myanmar 1028452,Wildfires,GDACS,closed,2026-04-07,19.223749140001058,97.57885703927894,https://eonet.gsfc.nasa.gov/api/v3/events/EONET_19749,2026-04-27T23:10:04Z
EONET_19750,Wildfire in Thailand 1028466,Wildfires,GDACS,closed,2026-04-07,18.987888480719374,99.83586645603587,https://eonet.gsfc.nasa.gov/api/v3/events/EONET_19750,2026-04-27T23:10:04Z
EONET_19789,Wildfire in India 1028486,Wildfires,GDACS,closed,2026-04-07,19.51190594576083,80.77500307382856,https://eonet.gsfc.nasa.gov/api/v3/events/EONET_19789,2026-04-27T23:10:04Z
EONET_19409,"Compartment 156 RX Prescribed Fire, Putnam, Georgia",Wildfires,IRWIN,open,2026-04-07,33.407033,-83.376383,https://eonet.gsfc.nasa.gov/api/v3/events/EONET_19409,2026-04-27T23:10:04Z
EONET_19432,"Mainline Wildfire, Polk, Texas",Wildfires,IRWIN,closed,2026-04-07,30.492511,-94.638858,https://eonet.gsfc.nasa.gov/api/v3/events/EONET_19432,2026-04-27T23:10:04Z
EONET_19422,"RX D2 Hog Sapphire Prescribed Fire, Ravalli, Montana",Wildfires,IRWIN,open,2026-04-07,46.164317,-113.877617,https://eonet.gsfc.nasa.gov/api/v3/events/EONET_19422,2026-04-27T23:10:04Z
EONET_19448,"Homochitto BB 6 South RX Prescribed Fire, Lincoln, Mississippi",Wildfires,IRWIN,open,2026-04-07,31.635,-90.73,https://eonet.gsfc.nasa.gov/api/v3/events/EONET_19448,2026-04-27T23:10:04Z
EONET_19449,"Bienville CPT 41 RX Prescribed Fire, Scott, Mississippi",Wildfires,IRWIN,open,2026-04-07,32.4037,-89.5682,https://eonet.gsfc.nasa.gov/api/v3/events/EONET_19449,2026-04-27T23:10:04Z
EONET_19450,"Bienville CPT 31 32 cont  RX Prescribed Fire, Scott, Mississippi",Wildfires,IRWIN,open,2026-04-07,32.4098,-89.6599,https://eonet.gsfc.nasa.gov/api/v3/events/EONET_19450,2026-04-27T23:10:04Z
EONET_19444,"Holly Springs IU 26-2 RX Prescribed Fire, Benton, Mississippi",Wildfires,IRWIN,open,2026-04-07,34.7893,-89.2329,https://eonet.gsfc.nasa.gov/api/v3/events/EONET_19444,2026-04-27T23:10:04Z
EONET_19446,"RX Bald Knob Prescribed Fire, Crawford, Arkansas",Wildfires,IRWIN,open,2026-04-07,35.6695,-94.3093,https://eonet.gsfc.nasa.gov/api/v3/events/EONET_19446,2026-04-27T23:10:04Z
EONET_19447,"RX BO/MAG Carter Mtn Prescribed Fire, Logan, Arkansas",Wildfires,IRWIN,open,2026-04-07,35.218256,-93.395096,https://eonet.gsfc.nasa.gov/api/v3/events/EONET_19447,2026-04-27T23:10:04Z
EONET_19458,"MULL Wildfire, Osage, Oklahoma",Wildfires,IRWIN,open,2026-04-07,36.539489,-96.362972,https://eonet.gsfc.nasa.gov/api/v3/events/EONET_19458,2026-04-27T23:10:04Z
EONET_19443,"RX PCS East Horseshoe 2 Prescribed Fire, Scott, Arkansas",Wildfires,IRWIN,open,2026-04-07,34.783517,-94.254627,https://eonet.gsfc.nasa.gov/api/v3/events/EONET_19443,2026-04-27T23:10:04Z
EONET_19452,"SHNF C-14/C-15 RX Prescribed Fire, Montgomery, Texas",Wildfires,IRWIN,open,2026-04-07,30.52045,-95.728667,https://eonet.gsfc.nasa.gov/api/v3/events/EONET_19452,2026-04-27T23:10:04Z
EONET_19445,"RX FORKS 5 Prescribed Fire, Montgomery, Arkansas",Wildfires,IRWIN,open,2026-04-07,34.525556,-93.738056,https://eonet.gsfc.nasa.gov/api/v3/events/EONET_19445,2026-04-27T23:10:04Z
EONET_19455,"SHNF C-43N RX Prescribed Fire, Walker, Texas",Wildfires,IRWIN,open,2026-04-07,30.524133,-95.57925,https://eonet.gsfc.nasa.gov/api/v3/events/EONET_19455,2026-04-27T23:10:04Z
EONET_19454,"RX Reeve&#039;s Fork Prescribed Fire, Newton, Arkansas",Wildfires,IRWIN,open,2026-04-07,35.808903,-93.464358,https://eonet.gsfc.nasa.gov/api/v3/events/EONET_19454,2026-04-27T23:10:04Z
EONET_19459,"SUNNY SLOPES Wildfire, Osage, Oklahoma",Wildfires,IRWIN,open,2026-04-07,36.463582,-96.616347,https://eonet.gsfc.nasa.gov/api/v3/events/EONET_19459,2026-04-27T23:10:04Z
EONET_19456,"RX CALE BU 30-33 Prescribed Fire, Rapides, Louisiana",Wildfires,IRWIN,open,2026-04-07,31.197633,-92.562217,https://eonet.gsfc.nasa.gov/api/v3/events/EONET_19456,2026-04-27T23:10:04Z
EONET_19451,"RX VANDERSLICE UNIT 8 Prescribed Fire, Montgomery, Arkansas",Wildfires,IRWIN,open,2026-04-07,34.671333,-93.484417,https://eonet.gsfc.nasa.gov/api/v3/events/EONET_19451,2026-04-27T23:10:04Z
EONET_19442,"C-75A FM RX Prescribed Fire, Berkeley, South Carolina",Wildfires,IRWIN,closed,2026-04-07,33.201972,-79.870556,https://eonet.gsfc.nasa.gov/api/v3/events/EONET_19442,2026-04-27T23:10:04Z
EONET_19417,"Meadow View Wildfire, Potter, Texas",Wildfires,IRWIN,closed,2026-04-06,35.469041,-101.813616,https://eonet.gsfc.nasa.gov/api/v3/events/EONET_19417,2026-04-27T23:10:04Z
EONET_19413,"Meadow View Wildfire, Potter, Texas",Wildfires,IRWIN,open,2026-04-06,35.468784,-101.832244,https://eonet.gsfc.nasa.gov/api/v3/events/EONET_19413,2026-04-27T23:10:04Z
EONET_19460,"rx-Lapham Good Oak 2026 Prescribed Fire, Waukesha, Wisconsin",Wildfires,IRWIN,open,2026-04-06,43.0403647,-88.3992015,https://eonet.gsfc.nasa.gov/api/v3/events/EONET_19460,2026-04-27T23:10:04Z
EONET_19376,Wildfire in Australia 1028218,Wildfires,GDACS,closed,2026-04-06,-15.731795329081466,128.3692566608866,https://eonet.gsfc.nasa.gov/api/v3/events/EONET_19376,2026-04-27T23:10:04Z
EONET_19377,Wildfire in Mongolia 1028219,Wildfires,GDACS,closed,2026-04-06,49.28756597876336,115.78281860426753,https://eonet.gsfc.nasa.gov/api/v3/events/EONET_19377,2026-04-27T23:10:04Z
EONET_19390,Wildfire in United States 1028227,Wildfires,GDACS,closed,2026-04-06,38.91899445788966,-96.3197936196026,https://eonet.gsfc.nasa.gov/api/v3/events/EONET_19390,2026-04-27T23:10:04Z
EONET_19467,Wildfire in Thailand 1028238,Wildfires,GDACS,closed,2026-04-06,15.973555377436302,101.80274244685963,https://eonet.gsfc.nasa.gov/api/v3/events/EONET_19467,2026-04-27T23:10:04Z
EONET_19518,Wildfire in Thailand 1028292,Wildfires,GDACS,closed,2026-04-06,18.08491180510639,97.87880808805856,https://eonet.gsfc.nasa.gov/api/v3/events/EONET_19518,2026-04-27T23:10:04Z
EONET_19519,Wildfire in India 1028283,Wildfires,GDACS,closed,2026-04-06,19.5568062796711,80.9628466759735,https://eonet.gsfc.nasa.gov/api/v3/events/EONET_19519,2026-04-27T23:10:04Z
EONET_19520,Wildfire in India 1028284,Wildfires,GDACS,closed,2026-04-06,27.09474691168079,82.90844256116571,https://eonet.gsfc.nasa.gov/api/v3/events/EONET_19520,2026-04-27T23:10:04Z
EONET_19521,Wildfire in Laos 1028288,Wildfires,GDACS,closed,2026-04-06,18.49607870708877,102.99372974559596,https://eonet.gsfc.nasa.gov/api/v3/events/EONET_19521,2026-04-27T23:10:04Z
EONET_19522,Wildfire in Laos 1028300,Wildfires,GDACS,closed,2026-04-06,18.195679981805988,105.0647453181585,https://eonet.gsfc.nasa.gov/api/v3/events/EONET_19522,2026-04-27T23:10:04Z
EONET_19523,Wildfire in Laos 1028301,Wildfires,GDACS,closed,2026-04-06,18.67248108240052,103.50692813060478,https://eonet.gsfc.nasa.gov/api/v3/events/EONET_19523,2026-04-27T23:10:04Z
EONET_19524,Wildfire in Laos 1028302,Wildfires,GDACS,closed,2026-04-06,19.780586217570878,104.02104247252585,https://eonet.gsfc.nasa.gov/api/v3/events/EONET_19524,2026-04-27T23:10:04Z
EONET_19610,Wildfire in Laos 1028348,Wildfires,GDACS,closed,2026-04-06,18.438604012097272,104.42491340421688,https://eonet.gsfc.nasa.gov/api/v3/events/EONET_19610,2026-04-27T23:10:04Z
EONET_19611,Wildfire in India 1028326,Wildfires,GDACS,closed,2026-04-06,19.475317588944463,81.13766127057659,https://eonet.gsfc.nasa.gov/api/v3/events/EONET_19611,2026-04-27T23:10:04Z
EONET_19612,Wildfire in Sudan 1028328,Wildfires,GDACS,closed,2026-04-06,9.160219631133002,30.337516884954365,https://eonet.gsfc.nasa.gov/api/v3/events/EONET_19612,2026-04-27T23:10:04Z
EONET_19663,Wildfire in Guinea 1028363,Wildfires,GDACS,closed,2026-04-06,11.32134300930628,-13.33056896765436,https://eonet.gsfc.nasa.gov/api/v3/events/EONET_19663,2026-04-27T23:10:04Z
EONET_19664,Wildfire in Laos 1028400,Wildfires,GDACS,closed,2026-04-06,20.06443887416467,101.87949643110454,https://eonet.gsfc.nasa.gov/api/v3/events/EONET_19664,2026-04-27T23:10:04Z
EONET_19665,Wildfire in Laos 1028401,Wildfires,GDACS,closed,2026-04-06,19.104064413692555,101.39747969345167,https://eonet.gsfc.nasa.gov/api/v3/events/EONET_19665,2026-04-27T23:10:04Z
EONET_19666,Wildfire in Australia 1028402,Wildfires,GDACS,closed,2026-04-06,-19.617820050920887,136.17873691953739,https://eonet.gsfc.nasa.gov/api/v3/events/EONET_19666,2026-04-27T23:10:04Z
EONET_19707,Wildfire in Thailand 1028437,Wildfires,GDACS,closed,2026-04-06,19.506543155023426,98.41695480348307,https://eonet.gsfc.nasa.gov/api/v3/events/EONET_19707,2026-04-27T23:10:04Z
EONET_19708,Wildfire in Laos 1028421,Wildfires,GDACS,closed,2026-04-06,18.67812821434813,103.33974392850835,https://eonet.gsfc.nasa.gov/api/v3/events/EONET_19708,2026-04-27T23:10:04Z
EONET_19709,Wildfire in Honduras 1028422,Wildfires,GDACS,closed,2026-04-06,14.299254474023508,-86.17572323006243,https://eonet.gsfc.nasa.gov/api/v3/events/EONET_19709,2026-04-27T23:10:04Z
EONET_19751,Wildfire in Sudan 1028444,Wildfires,GDACS,closed,2026-04-06,8.91648408249457,33.07754305842422,https://eonet.gsfc.nasa.gov/api/v3/events/EONET_19751,2026-04-27T23:10:04Z
EONET_19790,Wildfire in Thailand 1028491,Wildfires,GDACS,closed,2026-04-06,18.087221261755236,100.42442970980376,https://eonet.gsfc.nasa.gov/api/v3/events/EONET_19790,2026-04-27T23:10:04Z
EONET_19572,"Big Wilson RX Prescribed Fire, Bath, Virginia",Wildfires,IRWIN,open,2026-04-06,37.951306,-79.821194,https://eonet.gsfc.nasa.gov/api/v3/events/EONET_19572,2026-04-27T23:10:04Z
EONET_19589,"Comers Rock RX Prescribed Fire, Wythe, Virginia",Wildfires,IRWIN,open,2026-04-06,36.7655,-81.191833,https://eonet.gsfc.nasa.gov/api/v3/events/EONET_19589,2026-04-27T23:10:04Z
EONET_19453,"LON - Auger Springs RX Prescribed Fire, Laurel, Kentucky",Wildfires,IRWIN,open,2026-04-06,36.969,-84.229,https://eonet.gsfc.nasa.gov/api/v3/events/EONET_19453,2026-04-27T23:10:04Z
EONET_19408,"Compartment 163/164 RX Prescribed Fire, Putnam, Georgia",Wildfires,IRWIN,open,2026-04-06,33.36415,-83.464333,https://eonet.gsfc.nasa.gov/api/v3/events/EONET_19408,2026-04-27T23:10:04Z
EONET_19407,"Compartment 135 RX Prescribed Fire, Putnam, Georgia",Wildfires,IRWIN,open,2026-04-06,33.198667,-83.505083,https://eonet.gsfc.nasa.gov/api/v3/events/EONET_19407,2026-04-27T23:10:04Z
EONET_19462,"RX East Horseshoe Prescribed Fire, Scott, Arkansas",Wildfires,IRWIN,open,2026-04-06,34.766957,-94.260589,https://eonet.gsfc.nasa.gov/api/v3/events/EONET_19462,2026-04-27T23:10:04Z
EONET_19461,"RX MOUNT IDA 23 24 Prescribed Fire, Montgomery, Arkansas",Wildfires,IRWIN,open,2026-04-06,34.524444,-93.649722,https://eonet.gsfc.nasa.gov/api/v3/events/EONET_19461,2026-04-27T23:10:04Z
EONET_19349,"Holly Springs IU 81-1 83-1 RX Prescribed Fire, Lafayette, Mississippi",Wildfires,IRWIN,open,2026-04-06,34.49759,-89.382263,https://eonet.gsfc.nasa.gov/api/v3/events/EONET_19349,2026-04-27T23:10:04Z
EONET_19351,"EASTER PASTURE Wildfire, Hendry, Florida",Wildfires,IRWIN,open,2026-04-05,26.4713889,-81.0269444,https://eonet.gsfc.nasa.gov/api/v3/events/EONET_19351,2026-04-27T23:10:04Z
EONET_19391,Wildfire in Russian Federation 1028221,Wildfires,GDACS,closed,2026-04-05,46.10069419295233,48.83329586761586,https://eonet.gsfc.nasa.gov/api/v3/events/EONET_19391,2026-04-27T23:10:04Z
EONET_19392,Wildfire in Australia 1028225,Wildfires,GDACS,closed,2026-04-05,-17.807466462875908,131.36470864548977,https://eonet.gsfc.nasa.gov/api/v3/events/EONET_19392,2026-04-27T23:10:04Z
EONET_19484,Wildfire in Australia 1028279,Wildfires,GDACS,closed,2026-04-05,-17.779197241204187,131.23845747829807,https://eonet.gsfc.nasa.gov/api/v3/events/EONET_19484,2026-04-27T23:10:04Z
EONET_19525,Wildfire in India 1028285,Wildfires,GDACS,closed,2026-04-05,19.28933533765142,81.15331482571246,https://eonet.gsfc.nasa.gov/api/v3/events/EONET_19525,2026-04-27T23:10:04Z
EONET_19526,Wildfire in India 1028286,Wildfires,GDACS,closed,2026-04-05,19.254019712736014,80.92115995831655,https://eonet.gsfc.nasa.gov/api/v3/events/EONET_19526,2026-04-27T23:10:04Z
EONET_19541,Wildfire in Thailand 1028310,Wildfires,GDACS,closed,2026-04-05,16.93978040425672,104.30916356114089,https://eonet.gsfc.nasa.gov/api/v3/events/EONET_19541,2026-04-27T23:10:04Z
EONET_19542,Wildfire in Laos 1028311,Wildfires,GDACS,closed,2026-04-05,18.680265184876728,101.94613990252242,https://eonet.gsfc.nasa.gov/api/v3/events/EONET_19542,2026-04-27T23:10:04Z
EONET_19543,Wildfire in Thailand 1028321,Wildfires,GDACS,closed,2026-04-05,15.662508842169265,99.9299980919842,https://eonet.gsfc.nasa.gov/api/v3/events/EONET_19543,2026-04-27T23:10:04Z
EONET_19613,Wildfire in Laos 1028332,Wildfires,GDACS,closed,2026-04-05,18.40279407532141,102.6983323238214,https://eonet.gsfc.nasa.gov/api/v3/events/EONET_19613,2026-04-27T23:10:04Z
EONET_19667,Wildfire in Thailand 1028373,Wildfires,GDACS,closed,2026-04-05,14.344083090820202,98.8579499172196,https://eonet.gsfc.nasa.gov/api/v3/events/EONET_19667,2026-04-27T23:10:04Z
EONET_19668,Wildfire in Laos 1028403,Wildfires,GDACS,closed,2026-04-05,20.065131530936622,103.66067419181182,https://eonet.gsfc.nasa.gov/api/v3/events/EONET_19668,2026-04-27T23:10:04Z
EONET_19669,Wildfire in Laos 1028356,Wildfires,GDACS,closed,2026-04-05,18.591504744071088,103.23278061723815,https://eonet.gsfc.nasa.gov/api/v3/events/EONET_19669,2026-04-27T23:10:04Z
EONET_19710,"Wildfire in Myanmar, Thailand 1028438",Wildfires,GDACS,closed,2026-04-05,14.168423982594474,98.79176148424013,https://eonet.gsfc.nasa.gov/api/v3/events/EONET_19710,2026-04-27T23:10:04Z
EONET_19752,Wildfire in Laos 1028453,Wildfires,GDACS,closed,2026-04-05,18.811303992804028,102.23008074996892,https://eonet.gsfc.nasa.gov/api/v3/events/EONET_19752,2026-04-27T23:10:04Z
EONET_19753,Wildfire in Thailand 1028454,Wildfires,GDACS,closed,2026-04-05,14.485579044128954,99.2065989432611,https://eonet.gsfc.nasa.gov/api/v3/events/EONET_19753,2026-04-27T23:10:04Z
EONET_19770,Wildfire in Laos 1028472,Wildfires,GDACS,closed,2026-04-05,20.016833962906986,102.65433735171523,https://eonet.gsfc.nasa.gov/api/v3/events/EONET_19770,2026-04-27T23:10:04Z
EONET_19169,Tropical Cyclone Indusa,Severe Storms,JTWC,closed,2026-04-05,-32,73.1,https://eonet.gsfc.nasa.gov/api/v3/events/EONET_19169,2026-04-27T23:10:04Z
EONET_19425,"Williams Creek Wildfire, Perry, Alabama",Wildfires,IRWIN,open,2026-04-04,32.76539,-87.04236,https://eonet.gsfc.nasa.gov/api/v3/events/EONET_19425,2026-04-27T23:10:04Z
EONET_19375,Flood in Türkiye 1103833,Floods,GDACS,closed,2026-04-04,37.0468862,35.2823275,https://eonet.gsfc.nasa.gov/api/v3/events/EONET_19375,2026-04-27T23:10:04Z
EONET_19303,Wildfire in Australia 1028178,Wildfires,GDACS,closed,2026-04-04,-16.33584965065326,125.53351718733587,https://eonet.gsfc.nasa.gov/api/v3/events/EONET_19303,2026-04-27T23:10:04Z
EONET_19332,Wildfire in Australia 1028196,Wildfires,GDACS,closed,2026-04-04,-16.387720501824536,125.24338868857761,https://eonet.gsfc.nasa.gov/api/v3/events/EONET_19332,2026-04-27T23:10:04Z
EONET_19333,Wildfire in Australia 1028197,Wildfires,GDACS,closed,2026-04-04,-16.356429693747376,125.36553191466744,https://eonet.gsfc.nasa.gov/api/v3/events/EONET_19333,2026-04-27T23:10:04Z
EONET_19334,Wildfire in Myanmar 1028190,Wildfires,GDACS,closed,2026-04-04,21.229773945458223,92.9275818660162,https://eonet.gsfc.nasa.gov/api/v3/events/EONET_19334,2026-04-27T23:10:04Z
EONET_19378,Wildfire in United States 1028214,Wildfires,GDACS,closed,2026-04-04,37.3112587541737,-96.57078824265754,https://eonet.gsfc.nasa.gov/api/v3/events/EONET_19378,2026-04-27T23:10:04Z
EONET_19393,Wildfire in United States 1028228,Wildfires,GDACS,closed,2026-04-04,37.52559528078477,-96.01471554931712,https://eonet.gsfc.nasa.gov/api/v3/events/EONET_19393,2026-04-27T23:10:04Z
EONET_19468,Wildfire in India 1028239,Wildfires,GDACS,closed,2026-04-04,27.275678450052116,82.78680316461188,https://eonet.gsfc.nasa.gov/api/v3/events/EONET_19468,2026-04-27T23:10:04Z
EONET_19485,Wildfire in Laos 1028280,Wildfires,GDACS,closed,2026-04-04,20.014534875717416,103.57469731590068,https://eonet.gsfc.nasa.gov/api/v3/events/EONET_19485,2026-04-27T23:10:04Z
EONET_19527,Wildfire in Laos 1028303,Wildfires,GDACS,closed,2026-04-04,18.81316018651012,101.79477608362477,https://eonet.gsfc.nasa.gov/api/v3/events/EONET_19527,2026-04-27T23:10:04Z
EONET_19544,Wildfire in Thailand 1028307,Wildfires,GDACS,closed,2026-04-04,15.025719046113432,99.32899172555459,https://eonet.gsfc.nasa.gov/api/v3/events/EONET_19544,2026-04-27T23:10:04Z
EONET_19545,Wildfire in Laos 1028312,Wildfires,GDACS,closed,2026-04-04,18.06082866161872,101.52925975249204,https://eonet.gsfc.nasa.gov/api/v3/events/EONET_19545,2026-04-27T23:10:04Z
EONET_19614,"Wildfire in Laos, Thailand 1028349",Wildfires,GDACS,closed,2026-04-04,18.461331559042797,101.102882400568,https://eonet.gsfc.nasa.gov/api/v3/events/EONET_19614,2026-04-27T23:10:04Z
EONET_19670,Wildfire in Thailand 1028374,Wildfires,GDACS,closed,2026-04-04,19.48758649909807,98.10879805147805,https://eonet.gsfc.nasa.gov/api/v3/events/EONET_19670,2026-04-27T23:10:04Z
EONET_19671,"Wildfire in Thailand, Laos 1028370",Wildfires,GDACS,closed,2026-04-04,18.399643476660007,101.04729176500632,https://eonet.gsfc.nasa.gov/api/v3/events/EONET_19671,2026-04-27T23:10:04Z
EONET_19754,Wildfire in Laos 1028467,Wildfires,GDACS,closed,2026-04-04,18.354958702558026,101.81452197919938,https://eonet.gsfc.nasa.gov/api/v3/events/EONET_19754,2026-04-27T23:10:04Z
EONET_19587,"COVELO SOUTH VMP RX Prescribed Fire, Mendocino, California",Wildfires,IRWIN,open,2026-04-04,39.718807,-123.20401,https://eonet.gsfc.nasa.gov/api/v3/events/EONET_19587,2026-04-27T23:10:04Z
EONET_19354,"North Twin Wildfire, Hutchinson, Texas",Wildfires,IRWIN,closed,2026-04-04,35.75541,-101.57466,https://eonet.gsfc.nasa.gov/api/v3/events/EONET_19354,2026-04-27T23:10:04Z
EONET_19330,Flood in China 1103830,Floods,GDACS,closed,2026-04-03,24.7695434,121.0125368,https://eonet.gsfc.nasa.gov/api/v3/events/EONET_19330,2026-04-27T23:10:04Z
EONET_19356,"APQ Area 10 &amp; 10B Rx 0403 Prescribed Fire, Highlands, Florida",Wildfires,IRWIN,open,2026-04-03,27.607297,-81.172485,https://eonet.gsfc.nasa.gov/api/v3/events/EONET_19356,2026-04-27T23:10:04Z
EONET_19277,Wildfire in Russian Federation 1028150,Wildfires,GDACS,closed,2026-04-03,48.704126674102184,132.0473764289204,https://eonet.gsfc.nasa.gov/api/v3/events/EONET_19277,2026-04-27T23:10:04Z
EONET_19278,Wildfire in Myanmar 1028151,Wildfires,GDACS,closed,2026-04-03,21.315947227188293,93.08541232367195,https://eonet.gsfc.nasa.gov/api/v3/events/EONET_19278,2026-04-27T23:10:04Z
EONET_19279,Wildfire in China 1028152,Wildfires,GDACS,closed,2026-04-03,48.16162926463981,124.36994399981721,https://eonet.gsfc.nasa.gov/api/v3/events/EONET_19279,2026-04-27T23:10:04Z
EONET_19304,Wildfire in Myanmar 1028166,Wildfires,GDACS,closed,2026-04-03,21.42571229259251,92.86661054790723,https://eonet.gsfc.nasa.gov/api/v3/events/EONET_19304,2026-04-27T23:10:04Z
EONET_19305,Wildfire in Australia 1028179,Wildfires,GDACS,closed,2026-04-03,-32.22738329826664,116.47863042416742,https://eonet.gsfc.nasa.gov/api/v3/events/EONET_19305,2026-04-27T23:10:04Z
EONET_19306,Wildfire in Russian Federation 1028180,Wildfires,GDACS,closed,2026-04-03,48.71435633989748,134.89712081965936,https://eonet.gsfc.nasa.gov/api/v3/events/EONET_19306,2026-04-27T23:10:04Z
EONET_19307,Wildfire in Myanmar 1028164,Wildfires,GDACS,closed,2026-04-03,21.193564199411945,93.07861431689493,https://eonet.gsfc.nasa.gov/api/v3/events/EONET_19307,2026-04-27T23:10:04Z
EONET_19308,Wildfire in Myanmar 1028165,Wildfires,GDACS,closed,2026-04-03,21.120704583338682,93.01617529620478,https://eonet.gsfc.nasa.gov/api/v3/events/EONET_19308,2026-04-27T23:10:04Z
EONET_19379,Wildfire in Myanmar 1028207,Wildfires,GDACS,closed,2026-04-03,21.851247788914723,92.83750679566664,https://eonet.gsfc.nasa.gov/api/v3/events/EONET_19379,2026-04-27T23:10:04Z
EONET_19380,Wildfire in India 1028217,Wildfires,GDACS,closed,2026-04-03,22.935708891192654,78.25520395563076,https://eonet.gsfc.nasa.gov/api/v3/events/EONET_19380,2026-04-27T23:10:04Z
EONET_19469,Wildfire in Thailand 1028240,Wildfires,GDACS,closed,2026-04-03,19.34431697111376,98.12448729917838,https://eonet.gsfc.nasa.gov/api/v3/events/EONET_19469,2026-04-27T23:10:04Z
EONET_19470,Wildfire in Laos 1028241,Wildfires,GDACS,closed,2026-04-03,20.140438006910188,102.76624132487613,https://eonet.gsfc.nasa.gov/api/v3/events/EONET_19470,2026-04-27T23:10:04Z
EONET_19528,Wildfire in Laos 1028304,Wildfires,GDACS,closed,2026-04-03,20.69846129512102,103.87030974189737,https://eonet.gsfc.nasa.gov/api/v3/events/EONET_19528,2026-04-27T23:10:04Z
EONET_19529,Wildfire in Laos 1028293,Wildfires,GDACS,closed,2026-04-03,18.17125839308502,104.7937092529859,https://eonet.gsfc.nasa.gov/api/v3/events/EONET_19529,2026-04-27T23:10:04Z
EONET_19546,Wildfire in Laos 1028313,Wildfires,GDACS,closed,2026-04-03,18.83602951471544,102.06318049687496,https://eonet.gsfc.nasa.gov/api/v3/events/EONET_19546,2026-04-27T23:10:04Z
EONET_19547,Wildfire in India 1028308,Wildfires,GDACS,closed,2026-04-03,19.280482727501102,81.02087280253343,https://eonet.gsfc.nasa.gov/api/v3/events/EONET_19547,2026-04-27T23:10:04Z
EONET_19548,Wildfire in Viet Nam 1028322,Wildfires,GDACS,closed,2026-04-03,10.891876603802253,105.68699922305007,https://eonet.gsfc.nasa.gov/api/v3/events/EONET_19548,2026-04-27T23:10:04Z
EONET_19615,Wildfire in Laos 1028338,Wildfires,GDACS,closed,2026-04-03,19.303743554175256,101.41493788436053,https://eonet.gsfc.nasa.gov/api/v3/events/EONET_19615,2026-04-27T23:10:04Z
EONET_19672,Wildfire in Laos 1028357,Wildfires,GDACS,closed,2026-04-03,19.986624925636765,103.71507262935127,https://eonet.gsfc.nasa.gov/api/v3/events/EONET_19672,2026-04-27T23:10:04Z
EONET_19673,Wildfire in Viet Nam 1028404,Wildfires,GDACS,closed,2026-04-03,10.654640225072672,105.2969363075551,https://eonet.gsfc.nasa.gov/api/v3/events/EONET_19673,2026-04-27T23:10:04Z
EONET_19711,Wildfire in Thailand 1028423,Wildfires,GDACS,closed,2026-04-03,14.270843000013256,99.15401368667915,https://eonet.gsfc.nasa.gov/api/v3/events/EONET_19711,2026-04-27T23:10:04Z
EONET_19755,Wildfire in Thailand 1028468,Wildfires,GDACS,closed,2026-04-03,16.366860084605428,101.78637614672854,https://eonet.gsfc.nasa.gov/api/v3/events/EONET_19755,2026-04-27T23:10:04Z
EONET_19791,Wildfire in Thailand 1028492,Wildfires,GDACS,closed,2026-04-03,17.33840356804954,100.5655945282207,https://eonet.gsfc.nasa.gov/api/v3/events/EONET_19791,2026-04-27T23:10:04Z
EONET_19350,"Hilux Wildfire, Collier, Florida",Wildfires,IRWIN,open,2026-04-03,26.228889,-81.279167,https://eonet.gsfc.nasa.gov/api/v3/events/EONET_19350,2026-04-27T23:10:04Z
EONET_19355,"SPRINGS Wildfire, Riverside, California",Wildfires,IRWIN,open,2026-04-03,33.891678,-117.078415,https://eonet.gsfc.nasa.gov/api/v3/events/EONET_19355,2026-04-27T23:10:04Z
EONET_19357,"rx-Young 1 Prescribed Fire, Jefferson, Wisconsin",Wildfires,IRWIN,open,2026-04-03,42.8455985,-88.630401,https://eonet.gsfc.nasa.gov/api/v3/events/EONET_19357,2026-04-27T23:10:04Z
EONET_19848,"C-31 RX Burn 2 Prescribed Fire, Aiken, South Carolina",Wildfires,IRWIN,open,2026-04-03,33.339944,-81.586056,https://eonet.gsfc.nasa.gov/api/v3/events/EONET_19848,2026-04-27T23:10:04Z
EONET_6320,Iceberg A81,Sea and Lake Ice,NATICE,open,2026-04-03,-64.82,-57.15,https://eonet.gsfc.nasa.gov/api/v3/events/EONET_6320,2026-04-27T23:10:04Z
EONET_6474,Iceberg D35,Sea and Lake Ice,NATICE,open,2026-04-03,-65.34,-48.55,https://eonet.gsfc.nasa.gov/api/v3/events/EONET_6474,2026-04-27T23:10:04Z
EONET_19331,Flood in Colombia 1103831,Floods,GDACS,closed,2026-04-02,6.2443382,-75.573553,https://eonet.gsfc.nasa.gov/api/v3/events/EONET_19331,2026-04-27T23:10:04Z
EONET_19280,Wildfire in Myanmar 1028153,Wildfires,GDACS,closed,2026-04-02,21.509593033722485,92.79275899401534,https://eonet.gsfc.nasa.gov/api/v3/events/EONET_19280,2026-04-27T23:10:04Z
EONET_19309,Wildfire in Myanmar 1028167,Wildfires,GDACS,closed,2026-04-02,21.966461220442046,92.756489330887,https://eonet.gsfc.nasa.gov/api/v3/events/EONET_19309,2026-04-27T23:10:04Z
EONET_19310,Wildfire in India 1028181,Wildfires,GDACS,closed,2026-04-02,22.875935291308696,78.07707494235427,https://eonet.gsfc.nasa.gov/api/v3/events/EONET_19310,2026-04-27T23:10:04Z
EONET_19471,Wildfire in Thailand 1028242,Wildfires,GDACS,closed,2026-04-02,14.59961292775405,99.35233873499087,https://eonet.gsfc.nasa.gov/api/v3/events/EONET_19471,2026-04-27T23:10:04Z
EONET_19472,Wildfire in Thailand 1028243,Wildfires,GDACS,closed,2026-04-02,14.934073094609465,99.32567191641584,https://eonet.gsfc.nasa.gov/api/v3/events/EONET_19472,2026-04-27T23:10:04Z
EONET_19473,Wildfire in Thailand 1028244,Wildfires,GDACS,closed,2026-04-02,14.955890116518876,99.458974044488,https://eonet.gsfc.nasa.gov/api/v3/events/EONET_19473,2026-04-27T23:10:04Z
EONET_19474,Wildfire in Laos 1028245,Wildfires,GDACS,closed,2026-04-02,20.3370578636585,102.57687504617138,https://eonet.gsfc.nasa.gov/api/v3/events/EONET_19474,2026-04-27T23:10:04Z
EONET_19475,Wildfire in Laos 1028246,Wildfires,GDACS,closed,2026-04-02,19.79867074436586,100.81048826550274,https://eonet.gsfc.nasa.gov/api/v3/events/EONET_19475,2026-04-27T23:10:04Z
EONET_19476,Wildfire in Thailand 1028247,Wildfires,GDACS,closed,2026-04-02,16.938705675609572,99.61218052068902,https://eonet.gsfc.nasa.gov/api/v3/events/EONET_19476,2026-04-27T23:10:04Z
EONET_19477,Wildfire in Laos 1028248,Wildfires,GDACS,closed,2026-04-02,18.543004415787077,101.67103941424266,https://eonet.gsfc.nasa.gov/api/v3/events/EONET_19477,2026-04-27T23:10:04Z
EONET_19530,Wildfire in Thailand 1028294,Wildfires,GDACS,closed,2026-04-02,18.413069680344428,97.9714723461835,https://eonet.gsfc.nasa.gov/api/v3/events/EONET_19530,2026-04-27T23:10:04Z
EONET_19549,Wildfire in Thailand 1028315,Wildfires,GDACS,closed,2026-04-02,16.422923221881494,99.09103915352229,https://eonet.gsfc.nasa.gov/api/v3/events/EONET_19549,2026-04-27T23:10:04Z
EONET_19550,"Wildfire in Laos, Viet Nam 1028314",Wildfires,GDACS,closed,2026-04-02,20.742336194554102,103.40214349896353,https://eonet.gsfc.nasa.gov/api/v3/events/EONET_19550,2026-04-27T23:10:04Z
EONET_19674,Wildfire in Laos 1028405,Wildfires,GDACS,closed,2026-04-02,20.58518596186808,101.82648466257753,https://eonet.gsfc.nasa.gov/api/v3/events/EONET_19674,2026-04-27T23:10:04Z
EONET_19675,Wildfire in Thailand 1028377,Wildfires,GDACS,closed,2026-04-02,18.11625453025083,99.74844912524988,https://eonet.gsfc.nasa.gov/api/v3/events/EONET_19675,2026-04-27T23:10:04Z
EONET_19712,"Wildfire in Laos, Viet Nam 1028439",Wildfires,GDACS,closed,2026-04-02,20.772193136914648,103.1657173235058,https://eonet.gsfc.nasa.gov/api/v3/events/EONET_19712,2026-04-27T23:10:04Z
EONET_19756,Wildfire in Thailand 1028469,Wildfires,GDACS,closed,2026-04-02,19.697974579890822,99.60101973344136,https://eonet.gsfc.nasa.gov/api/v3/events/EONET_19756,2026-04-27T23:10:04Z
EONET_19352,"Sargent Wildfire, Polk, Florida",Wildfires,IRWIN,open,2026-04-02,30.5716667,-82.4283333,https://eonet.gsfc.nasa.gov/api/v3/events/EONET_19352,2026-04-27T23:10:04Z
EONET_19353,"Lefty Wildfire, Hall, Texas",Wildfires,IRWIN,closed,2026-04-02,34.41722222,-100.6016667,https://eonet.gsfc.nasa.gov/api/v3/events/EONET_19353,2026-04-27T23:10:04Z
EONET_19202,"Bronson Wildfire, Woodbury, Iowa",Wildfires,IRWIN,closed,2026-04-02,42.3866,-96.20055,https://eonet.gsfc.nasa.gov/api/v3/events/EONET_19202,2026-04-27T23:10:04Z
EONET_19203,"rx-12_ 13_ 14 Prescribed Fire, Burnett, Wisconsin",Wildfires,IRWIN,open,2026-04-02,45.7153853,-92.6888328,https://eonet.gsfc.nasa.gov/api/v3/events/EONET_19203,2026-04-27T23:10:04Z
EONET_19204,"Rx Houston 3041 Prescribed Fire, Houston, Texas",Wildfires,IRWIN,open,2026-04-02,31.407942,-95.537898,https://eonet.gsfc.nasa.gov/api/v3/events/EONET_19204,2026-04-27T23:10:04Z
EONET_19847,"C-82 RX Burn 6 Prescribed Fire, Barnwell, South Carolina",Wildfires,IRWIN,open,2026-04-02,33.214186,-81.497269,https://eonet.gsfc.nasa.gov/api/v3/events/EONET_19847,2026-04-27T23:10:04Z
EONET_19253,Wildfire in Russian Federation 1028133,Wildfires,GDACS,closed,2026-04-01,48.434456588332374,133.84930606351608,https://eonet.gsfc.nasa.gov/api/v3/events/EONET_19253,2026-04-27T23:10:04Z
EONET_19254,Wildfire in Russian Federation 1028134,Wildfires,GDACS,closed,2026-04-01,48.29436162019492,133.66631840898873,https://eonet.gsfc.nasa.gov/api/v3/events/EONET_19254,2026-04-27T23:10:04Z
EONET_19311,Wildfire in Myanmar 1028168,Wildfires,GDACS,closed,2026-04-01,21.653710528083472,92.73697541995064,https://eonet.gsfc.nasa.gov/api/v3/events/EONET_19311,2026-04-27T23:10:04Z
EONET_19312,Wildfire in Myanmar 1028169,Wildfires,GDACS,closed,2026-04-01,21.810312020526986,92.77057637190273,https://eonet.gsfc.nasa.gov/api/v3/events/EONET_19312,2026-04-27T23:10:04Z
EONET_19335,Wildfire in Laos 1028198,Wildfires,GDACS,closed,2026-04-01,15.44819233055206,106.96243245740928,https://eonet.gsfc.nasa.gov/api/v3/events/EONET_19335,2026-04-27T23:10:04Z
EONET_19336,Wildfire in India 1028199,Wildfires,GDACS,closed,2026-04-01,25.882821986077527,92.17303320857066,https://eonet.gsfc.nasa.gov/api/v3/events/EONET_19336,2026-04-27T23:10:04Z
EONET_19381,Wildfire in India 1028208,Wildfires,GDACS,closed,2026-04-01,25.789752722818605,90.99137486465054,https://eonet.gsfc.nasa.gov/api/v3/events/EONET_19381,2026-04-27T23:10:04Z
EONET_19478,Wildfire in Laos 1028249,Wildfires,GDACS,closed,2026-04-01,18.38922358444889,103.01317525740431,https://eonet.gsfc.nasa.gov/api/v3/events/EONET_19478,2026-04-27T23:10:04Z
EONET_19479,Wildfire in Laos 1028250,Wildfires,GDACS,closed,2026-04-01,18.6714133503704,102.3762331392708,https://eonet.gsfc.nasa.gov/api/v3/events/EONET_19479,2026-04-27T23:10:04Z
EONET_19480,Wildfire in Thailand 1028251,Wildfires,GDACS,closed,2026-04-01,18.000454140615858,98.08247750685922,https://eonet.gsfc.nasa.gov/api/v3/events/EONET_19480,2026-04-27T23:10:04Z
EONET_19531,Wildfire in Laos 1028295,Wildfires,GDACS,closed,2026-04-01,18.308246118364977,102.92289043875806,https://eonet.gsfc.nasa.gov/api/v3/events/EONET_19531,2026-04-27T23:10:04Z
EONET_19551,Wildfire in Laos 1028323,Wildfires,GDACS,closed,2026-04-01,18.4973838936556,103.95470877061985,https://eonet.gsfc.nasa.gov/api/v3/events/EONET_19551,2026-04-27T23:10:04Z
EONET_19616,"Wildfire in Laos, Thailand 1028333",Wildfires,GDACS,closed,2026-04-01,17.60993883035172,100.98997044419275,https://eonet.gsfc.nasa.gov/api/v3/events/EONET_19616,2026-04-27T23:10:04Z
EONET_19617,Wildfire in Thailand 1028350,Wildfires,GDACS,closed,2026-04-01,15.709598371289648,99.31540334499341,https://eonet.gsfc.nasa.gov/api/v3/events/EONET_19617,2026-04-27T23:10:04Z
EONET_19676,Wildfire in Laos 1028406,Wildfires,GDACS,closed,2026-04-01,18.6025801836881,104.17514631587926,https://eonet.gsfc.nasa.gov/api/v3/events/EONET_19676,2026-04-27T23:10:04Z
EONET_19757,Wildfire in Laos 1028448,Wildfires,GDACS,closed,2026-04-01,18.400066437612328,103.02804175009445,https://eonet.gsfc.nasa.gov/api/v3/events/EONET_19757,2026-04-27T23:10:04Z
EONET_19208,"RX PCS Beauchamp North Prescribed Fire, Scott, Arkansas",Wildfires,IRWIN,open,2026-04-01,34.800258,-94.327475,https://eonet.gsfc.nasa.gov/api/v3/events/EONET_19208,2026-04-27T23:10:04Z
EONET_19842,"Elkhorn RX Prescribed Fire, Augusta, Virginia",Wildfires,IRWIN,open,2026-04-01,38.337334,-79.221611,https://eonet.gsfc.nasa.gov/api/v3/events/EONET_19842,2026-04-27T23:10:04Z
EONET_19171,Wildfire in Russian Federation 1028105,Wildfires,GDACS,closed,2026-03-31,48.333832348223936,133.45782539498202,https://eonet.gsfc.nasa.gov/api/v3/events/EONET_19171,2026-04-27T23:10:04Z
EONET_19281,"Wildfire in Myanmar, Thailand 1028154",Wildfires,GDACS,closed,2026-03-31,18.28350815898736,97.58866366122041,https://eonet.gsfc.nasa.gov/api/v3/events/EONET_19281,2026-04-27T23:10:04Z
EONET_19282,Wildfire in China 1028155,Wildfires,GDACS,closed,2026-03-31,48.32253715155408,124.70689213396325,https://eonet.gsfc.nasa.gov/api/v3/events/EONET_19282,2026-04-27T23:10:04Z
EONET_19283,Wildfire in Russian Federation 1028156,Wildfires,GDACS,closed,2026-03-31,48.287438360850665,132.11513173624454,https://eonet.gsfc.nasa.gov/api/v3/events/EONET_19283,2026-04-27T23:10:04Z
EONET_19284,Wildfire in India 1028157,Wildfires,GDACS,closed,2026-03-31,25.278543067676083,93.03566593279255,https://eonet.gsfc.nasa.gov/api/v3/events/EONET_19284,2026-04-27T23:10:04Z
EONET_19313,"Wildfire in Liberia, Guinea 1028174",Wildfires,GDACS,closed,2026-03-31,8.445297218312096,-9.925323483677253,https://eonet.gsfc.nasa.gov/api/v3/events/EONET_19313,2026-04-27T23:10:04Z
EONET_19314,Wildfire in Australia 1028182,Wildfires,GDACS,closed,2026-03-31,-32.00702555688946,116.5081019104874,https://eonet.gsfc.nasa.gov/api/v3/events/EONET_19314,2026-04-27T23:10:04Z
EONET_19315,Wildfire in India 1028183,Wildfires,GDACS,closed,2026-03-31,25.32592964677178,93.22509916957692,https://eonet.gsfc.nasa.gov/api/v3/events/EONET_19315,2026-04-27T23:10:04Z
EONET_19316,Wildfire in Thailand 1028177,Wildfires,GDACS,closed,2026-03-31,14.75819423001893,99.2760683039521,https://eonet.gsfc.nasa.gov/api/v3/events/EONET_19316,2026-04-27T23:10:04Z
EONET_19317,Wildfire in Myanmar 1028170,Wildfires,GDACS,closed,2026-03-31,21.749920236809757,92.94196699250254,https://eonet.gsfc.nasa.gov/api/v3/events/EONET_19317,2026-04-27T23:10:04Z
EONET_19337,Wildfire in India 1028191,Wildfires,GDACS,closed,2026-03-31,22.878743630045136,78.04806843655994,https://eonet.gsfc.nasa.gov/api/v3/events/EONET_19337,2026-04-27T23:10:04Z
EONET_19338,Wildfire in India 1028192,Wildfires,GDACS,closed,2026-03-31,25.153272133835788,86.480931968046,https://eonet.gsfc.nasa.gov/api/v3/events/EONET_19338,2026-04-27T23:10:04Z
EONET_19382,Wildfire in Myanmar 1028209,Wildfires,GDACS,closed,2026-03-31,23.38131632652329,96.39753430059129,https://eonet.gsfc.nasa.gov/api/v3/events/EONET_19382,2026-04-27T23:10:04Z
EONET_19394,Wildfire in Thailand 1028229,Wildfires,GDACS,closed,2026-03-31,15.972489339899038,101.53927785204097,https://eonet.gsfc.nasa.gov/api/v3/events/EONET_19394,2026-04-27T23:10:04Z
EONET_19395,Wildfire in Liberia 1028226,Wildfires,GDACS,closed,2026-03-31,8.329013157375806,-10.021255082743751,https://eonet.gsfc.nasa.gov/api/v3/events/EONET_19395,2026-04-27T23:10:04Z
EONET_19486,Wildfire in Laos 1028256,Wildfires,GDACS,closed,2026-03-31,18.443210051747393,101.31639080415734,https://eonet.gsfc.nasa.gov/api/v3/events/EONET_19486,2026-04-27T23:10:04Z
EONET_19487,Wildfire in Laos 1028252,Wildfires,GDACS,closed,2026-03-31,18.151859101966615,102.34657687146101,https://eonet.gsfc.nasa.gov/api/v3/events/EONET_19487,2026-04-27T23:10:04Z
EONET_19488,Wildfire in Thailand 1028253,Wildfires,GDACS,closed,2026-03-31,18.39814112726315,97.56054981510532,https://eonet.gsfc.nasa.gov/api/v3/events/EONET_19488,2026-04-27T23:10:04Z
EONET_19489,Wildfire in Thailand 1028254,Wildfires,GDACS,closed,2026-03-31,19.247298709239654,98.24901772547777,https://eonet.gsfc.nasa.gov/api/v3/events/EONET_19489,2026-04-27T23:10:04Z
EONET_19490,Wildfire in Laos 1028255,Wildfires,GDACS,closed,2026-03-31,20.160036346369317,102.50438694560056,https://eonet.gsfc.nasa.gov/api/v3/events/EONET_19490,2026-04-27T23:10:04Z
EONET_19491,"Wildfire in Thailand, Myanmar 1028257",Wildfires,GDACS,closed,2026-03-31,17.97187789654854,97.80499051129023,https://eonet.gsfc.nasa.gov/api/v3/events/EONET_19491,2026-04-27T23:10:04Z
EONET_19492,Wildfire in Thailand 1028276,Wildfires,GDACS,closed,2026-03-31,16.276774990544194,99.19773638443377,https://eonet.gsfc.nasa.gov/api/v3/events/EONET_19492,2026-04-27T23:10:04Z
EONET_19532,"Wildfire in Laos, Thailand 1028296",Wildfires,GDACS,closed,2026-03-31,18.506653487667872,101.16598264383137,https://eonet.gsfc.nasa.gov/api/v3/events/EONET_19532,2026-04-27T23:10:04Z
EONET_19533,Wildfire in Laos 1028289,Wildfires,GDACS,closed,2026-03-31,19.4860390392423,102.21046204801199,https://eonet.gsfc.nasa.gov/api/v3/events/EONET_19533,2026-04-27T23:10:04Z
EONET_19552,Wildfire in Thailand 1028316,Wildfires,GDACS,closed,2026-03-31,16.913484600165788,104.09541282820494,https://eonet.gsfc.nasa.gov/api/v3/events/EONET_19552,2026-04-27T23:10:04Z
EONET_19618,Wildfire in Laos 1028334,Wildfires,GDACS,closed,2026-03-31,19.341182939844245,101.95584513919177,https://eonet.gsfc.nasa.gov/api/v3/events/EONET_19618,2026-04-27T23:10:04Z
EONET_19619,Wildfire in Laos 1028327,Wildfires,GDACS,closed,2026-03-31,18.633672731422255,104.38636600703305,https://eonet.gsfc.nasa.gov/api/v3/events/EONET_19619,2026-04-27T23:10:04Z
EONET_19677,Wildfire in Laos 1028407,Wildfires,GDACS,closed,2026-03-31,19.89228112827694,101.25047699100934,https://eonet.gsfc.nasa.gov/api/v3/events/EONET_19677,2026-04-27T23:10:04Z
EONET_19229,"Julie Pond Wildfire, Dorchester, Maryland",Wildfires,IRWIN,open,2026-03-31,38.396085,-75.97625,https://eonet.gsfc.nasa.gov/api/v3/events/EONET_19229,2026-04-27T23:10:04Z
EONET_19232,"Caddo Lake C-6 RX Prescribed Fire, Harrison, Texas",Wildfires,IRWIN,open,2026-03-31,32.667308,-94.104296,https://eonet.gsfc.nasa.gov/api/v3/events/EONET_19232,2026-04-27T23:10:04Z
EONET_19224,"C-148 BLK 9 10 &amp; 11 EN RX Prescribed Fire, Newberry, South Carolina",Wildfires,IRWIN,open,2026-03-31,34.421667,-81.528333,https://eonet.gsfc.nasa.gov/api/v3/events/EONET_19224,2026-04-27T23:10:04Z
EONET_19142,Flood in Italy 1103825,Floods,GDACS,closed,2026-03-30,42.296042,14.444515,https://eonet.gsfc.nasa.gov/api/v3/events/EONET_19142,2026-04-27T23:10:04Z
EONET_19225,"Middle Toe Wildfire, Pittsburg, Oklahoma",Wildfires,IRWIN,open,2026-03-30,35.0475,-95.3977778,https://eonet.gsfc.nasa.gov/api/v3/events/EONET_19225,2026-04-27T23:10:04Z
EONET_19110,Wildfire in China 1028052,Wildfires,GDACS,closed,2026-03-30,48.01622888154749,123.77112375416846,https://eonet.gsfc.nasa.gov/api/v3/events/EONET_19110,2026-04-27T23:10:04Z
EONET_19144,Wildfire in China 1028085,Wildfires,GDACS,closed,2026-03-30,47.57521523361517,124.65718278619973,https://eonet.gsfc.nasa.gov/api/v3/events/EONET_19144,2026-04-27T23:10:04Z
EONET_19145,Wildfire in Russian Federation 1028086,Wildfires,GDACS,closed,2026-03-30,44.16305316551417,131.48816781817737,https://eonet.gsfc.nasa.gov/api/v3/events/EONET_19145,2026-04-27T23:10:04Z
EONET_19172,Wildfire in Australia 1028099,Wildfires,GDACS,closed,2026-03-30,-16.926678572850307,126.3396102873574,https://eonet.gsfc.nasa.gov/api/v3/events/EONET_19172,2026-04-27T23:10:04Z
EONET_19173,Wildfire in China 1028106,Wildfires,GDACS,closed,2026-03-30,46.00886263136759,127.96937390874287,https://eonet.gsfc.nasa.gov/api/v3/events/EONET_19173,2026-04-27T23:10:04Z
EONET_19174,Wildfire in Australia 1028107,Wildfires,GDACS,closed,2026-03-30,-15.863236610810196,128.03560946301388,https://eonet.gsfc.nasa.gov/api/v3/events/EONET_19174,2026-04-27T23:10:04Z
EONET_19255,Wildfire in Australia 1028135,Wildfires,GDACS,closed,2026-03-30,-16.63344894040525,126.97769914758672,https://eonet.gsfc.nasa.gov/api/v3/events/EONET_19255,2026-04-27T23:10:04Z
EONET_19285,Wildfire in Thailand 1028146,Wildfires,GDACS,closed,2026-03-30,18.132966696893867,97.80062654023209,https://eonet.gsfc.nasa.gov/api/v3/events/EONET_19285,2026-04-27T23:10:04Z
EONET_19318,Wildfire in India 1028171,Wildfires,GDACS,closed,2026-03-30,22.780050151646535,77.8972441761564,https://eonet.gsfc.nasa.gov/api/v3/events/EONET_19318,2026-04-27T23:10:04Z
EONET_19319,Wildfire in Bangladesh 1028172,Wildfires,GDACS,closed,2026-03-30,22.21719395672267,92.46906307316365,https://eonet.gsfc.nasa.gov/api/v3/events/EONET_19319,2026-04-27T23:10:04Z
EONET_19339,Wildfire in Australia 1028200,Wildfires,GDACS,closed,2026-03-30,-16.072059911559883,126.72478648645938,https://eonet.gsfc.nasa.gov/api/v3/events/EONET_19339,2026-04-27T23:10:04Z
EONET_19340,Wildfire in Myanmar 1028201,Wildfires,GDACS,closed,2026-03-30,23.023003657773042,94.56397526396943,https://eonet.gsfc.nasa.gov/api/v3/events/EONET_19340,2026-04-27T23:10:04Z
EONET_19493,Wildfire in Myanmar 1028281,Wildfires,GDACS,closed,2026-03-30,18.10726214287172,97.49959714298106,https://eonet.gsfc.nasa.gov/api/v3/events/EONET_19493,2026-04-27T23:10:04Z
EONET_19494,Wildfire in Thailand 1028258,Wildfires,GDACS,closed,2026-03-30,16.40074956012156,99.15313091623263,https://eonet.gsfc.nasa.gov/api/v3/events/EONET_19494,2026-04-27T23:10:04Z
EONET_19495,Wildfire in Thailand 1028259,Wildfires,GDACS,closed,2026-03-30,19.249092811225726,98.3963277428342,https://eonet.gsfc.nasa.gov/api/v3/events/EONET_19495,2026-04-27T23:10:04Z
EONET_19496,Wildfire in Laos 1028260,Wildfires,GDACS,closed,2026-03-30,18.82317102497151,101.46960501071874,https://eonet.gsfc.nasa.gov/api/v3/events/EONET_19496,2026-04-27T23:10:04Z
EONET_19497,Wildfire in Laos 1028261,Wildfires,GDACS,closed,2026-03-30,16.232906953384198,106.90204374506985,https://eonet.gsfc.nasa.gov/api/v3/events/EONET_19497,2026-04-27T23:10:04Z
EONET_19553,Wildfire in Thailand 1028317,Wildfires,GDACS,closed,2026-03-30,16.372585826256586,99.14689091320227,https://eonet.gsfc.nasa.gov/api/v3/events/EONET_19553,2026-04-27T23:10:04Z
EONET_19554,Wildfire in Myanmar 1028309,Wildfires,GDACS,closed,2026-03-30,13.733038380559384,98.99764124186501,https://eonet.gsfc.nasa.gov/api/v3/events/EONET_19554,2026-04-27T23:10:04Z
EONET_19620,Wildfire in Laos 1028335,Wildfires,GDACS,closed,2026-03-30,18.594162494455702,102.99540610024559,https://eonet.gsfc.nasa.gov/api/v3/events/EONET_19620,2026-04-27T23:10:04Z
EONET_19678,Wildfire in Thailand 1028378,Wildfires,GDACS,closed,2026-03-30,15.372023392445314,98.76338475081175,https://eonet.gsfc.nasa.gov/api/v3/events/EONET_19678,2026-04-27T23:10:04Z
EONET_19194,"Hall Thompson Lane Wildfire, Shelby, Alabama",Wildfires,IRWIN,open,2026-03-30,33.4077778,-86.5408333,https://eonet.gsfc.nasa.gov/api/v3/events/EONET_19194,2026-04-27T23:10:04Z
EONET_19803,"Tracy Ridge Rx Prescribed Fire, Warren, Pennsylvania",Wildfires,IRWIN,open,2026-03-30,41.91305,-78.916783,https://eonet.gsfc.nasa.gov/api/v3/events/EONET_19803,2026-04-27T23:10:04Z
EONET_19239,"Sweetwater Wildfire, Marengo, Alabama",Wildfires,IRWIN,open,2026-03-30,32.2358333,-87.915,https://eonet.gsfc.nasa.gov/api/v3/events/EONET_19239,2026-04-27T23:10:04Z
EONET_19237,"RX PCS Henry Mountain Prescribed Fire, Scott, Arkansas",Wildfires,IRWIN,open,2026-03-30,34.805454,-94.248164,https://eonet.gsfc.nasa.gov/api/v3/events/EONET_19237,2026-04-27T23:10:04Z
EONET_19233,"DCNF C37 RX Prescribed Fire, Houston, Texas",Wildfires,IRWIN,open,2026-03-30,31.347207,-95.258555,https://eonet.gsfc.nasa.gov/api/v3/events/EONET_19233,2026-04-27T23:10:04Z
EONET_19234,"RX Forks 14 Prescribed Fire, Montgomery, Arkansas",Wildfires,IRWIN,open,2026-03-30,34.564167,-93.801389,https://eonet.gsfc.nasa.gov/api/v3/events/EONET_19234,2026-04-27T23:10:04Z
EONET_19238,"Chickasawhay CPT 373 RX Prescribed Fire, Wayne, Mississippi",Wildfires,IRWIN,open,2026-03-30,31.5429,-88.8988,https://eonet.gsfc.nasa.gov/api/v3/events/EONET_19238,2026-04-27T23:10:04Z
EONET_19212,"14B/14C RX Prescribed Fire, Jones, Georgia",Wildfires,IRWIN,open,2026-03-30,33.1173,-83.6958,https://eonet.gsfc.nasa.gov/api/v3/events/EONET_19212,2026-04-27T23:10:04Z
